[
    {
        "insee": 74001,
        "code_postal": 74360,
        "latitude": 46.2661080816,
        "longitude": 6.7321620538,
        "nom_commune": "Abondance",
        "code_departement": 74,
        "nom_departement": "Haute-Savoie",
        "code_region": 84,
        "nom_region": "Auvergne-Rhône-Alpes",
        "context": "Abondance, Haute-Savoie, Auvergne-Rhône-Alpes",
        "population": 1297,
        "icon": "fe-municipality"
    },
    {
        "insee": 74002,
        "code_postal": 74540,
        "latitude": 45.8156435779,
        "longitude": 6.01581486858,
        "nom_commune": "Alby-sur-Chéran",
        "code_departement": 74,
        "nom_departement": "Haute-Savoie",
        "code_region": 84,
        "nom_region": "Auvergne-Rhône-Alpes",
        "context": "Alby-sur-Chéran, Haute-Savoie, Auvergne-Rhône-Alpes",
        "population": 1631,
        "icon": "fe-municipality"
    },
    {
        "insee": 74003,
        "code_postal": 74290,
        "latitude": 45.8806920223,
        "longitude": 6.23633769093,
        "nom_commune": "Alex",
        "code_departement": 74,
        "nom_departement": "Haute-Savoie",
        "code_region": 84,
        "nom_region": "Auvergne-Rhône-Alpes",
        "context": "Alex, Haute-Savoie, Auvergne-Rhône-Alpes",
        "population": 791,
        "icon": "fe-municipality"
    },
    {
        "insee": 74004,
        "code_postal": 74540,
        "latitude": 45.7588655872,
        "longitude": 6.08634740225,
        "nom_commune": "Allèves",
        "code_departement": 74,
        "nom_departement": "Haute-Savoie",
        "code_region": 84,
        "nom_region": "Auvergne-Rhône-Alpes",
        "context": "Allèves, Haute-Savoie, Auvergne-Rhône-Alpes",
        "population": 264,
        "icon": "fe-municipality"
    },
    {
        "insee": 74005,
        "code_postal": 74200,
        "latitude": 46.333709028,
        "longitude": 6.46512142751,
        "nom_commune": "Allinges",
        "code_departement": 74,
        "nom_departement": "Haute-Savoie",
        "code_region": 84,
        "nom_region": "Auvergne-Rhône-Alpes",
        "context": "Allinges, Haute-Savoie, Auvergne-Rhône-Alpes",
        "population": 3022,
        "icon": "fe-municipality"
    },
    {
        "insee": 74006,
        "code_postal": 74350,
        "latitude": 46.000527699,
        "longitude": 6.10482048689,
        "nom_commune": "Allonzier-la-Caille",
        "code_departement": 74,
        "nom_departement": "Haute-Savoie",
        "code_region": 84,
        "nom_region": "Auvergne-Rhône-Alpes",
        "context": "Allonzier-la-Caille, Haute-Savoie, Auvergne-Rhône-Alpes",
        "population": 1080,
        "icon": "fe-municipality"
    },
    {
        "insee": 74007,
        "code_postal": 74800,
        "latitude": 46.0728257803,
        "longitude": 6.33057376854,
        "nom_commune": "Amancy",
        "code_departement": 74,
        "nom_departement": "Haute-Savoie",
        "code_region": 84,
        "nom_region": "Auvergne-Rhône-Alpes",
        "context": "Amancy, Haute-Savoie, Auvergne-Rhône-Alpes",
        "population": 1757,
        "icon": "fe-municipality"
    },
    {
        "insee": 74008,
        "code_postal": 74100,
        "latitude": 46.1961567042,
        "longitude": 6.22429975401,
        "nom_commune": "Ambilly",
        "code_departement": 74,
        "nom_departement": "Haute-Savoie",
        "code_region": 84,
        "nom_region": "Auvergne-Rhône-Alpes",
        "context": "Ambilly, Haute-Savoie, Auvergne-Rhône-Alpes",
        "population": 5811,
        "icon": "fe-municipality"
    },
    {
        "insee": 74009,
        "code_postal": 74350,
        "latitude": 46.0702115695,
        "longitude": 6.0710017836,
        "nom_commune": "Andilly",
        "code_departement": 74,
        "nom_departement": "Haute-Savoie",
        "code_region": 84,
        "nom_region": "Auvergne-Rhône-Alpes",
        "context": "Andilly, Haute-Savoie, Auvergne-Rhône-Alpes",
        "population": 594,
        "icon": "fe-municipality"
    },
    {
        "insee": 74010,
        "code_postal": 74000,
        "latitude": 45.8906432566,
        "longitude": 6.12551773598,
        "nom_commune": "Annecy",
        "code_departement": 74,
        "nom_departement": "Haute-Savoie",
        "code_region": 84,
        "nom_region": "Auvergne-Rhône-Alpes",
        "context": "Annecy, Haute-Savoie, Auvergne-Rhône-Alpes",
        "population": 50324,
        "icon": "fe-town"
    },
    {
        "insee": 74011,
        "code_postal": 74940,
        "latitude": 45.9193395896,
        "longitude": 6.16076240491,
        "nom_commune": "Annecy-le-Vieux",
        "code_departement": 74,
        "nom_departement": "Haute-Savoie",
        "code_region": 84,
        "nom_region": "Auvergne-Rhône-Alpes",
        "context": "Annecy-le-Vieux, Haute-Savoie, Auvergne-Rhône-Alpes",
        "population": 18892,
        "icon": "fe-town"
    },
    {
        "insee": 74012,
        "code_postal": 74100,
        "latitude": 46.1909730986,
        "longitude": 6.24250704322,
        "nom_commune": "Annemasse",
        "code_departement": 74,
        "nom_departement": "Haute-Savoie",
        "code_region": 84,
        "nom_region": "Auvergne-Rhône-Alpes",
        "context": "Annemasse, Haute-Savoie, Auvergne-Rhône-Alpes",
        "population": 27238,
        "icon": "fe-town"
    },
    {
        "insee": 74013,
        "code_postal": 74200,
        "latitude": 46.3530564511,
        "longitude": 6.42748586139,
        "nom_commune": "Anthy-sur-Léman",
        "code_departement": 74,
        "nom_departement": "Haute-Savoie",
        "code_region": 84,
        "nom_region": "Auvergne-Rhône-Alpes",
        "context": "Anthy-sur-Léman, Haute-Savoie, Auvergne-Rhône-Alpes",
        "population": 1765,
        "icon": "fe-municipality"
    },
    {
        "insee": 74014,
        "code_postal": 74300,
        "latitude": 46.0302694516,
        "longitude": 6.66062068121,
        "nom_commune": "Arâches-la-Frasse",
        "code_departement": 74,
        "nom_departement": "Haute-Savoie",
        "code_region": 84,
        "nom_region": "Auvergne-Rhône-Alpes",
        "context": "Arâches-la-Frasse, Haute-Savoie, Auvergne-Rhône-Alpes",
        "population": 1695,
        "icon": "fe-municipality"
    },
    {
        "insee": 74015,
        "code_postal": 74930,
        "latitude": 46.086240469,
        "longitude": 6.20734603818,
        "nom_commune": "Arbusigny",
        "code_departement": 74,
        "nom_departement": "Haute-Savoie",
        "code_region": 84,
        "nom_region": "Auvergne-Rhône-Alpes",
        "context": "Arbusigny, Haute-Savoie, Auvergne-Rhône-Alpes",
        "population": 689,
        "icon": "fe-municipality"
    },
    {
        "insee": 74016,
        "code_postal": 74160,
        "latitude": 46.1222282115,
        "longitude": 6.13971386615,
        "nom_commune": "Archamps",
        "code_departement": 74,
        "nom_departement": "Haute-Savoie",
        "code_region": 84,
        "nom_region": "Auvergne-Rhône-Alpes",
        "context": "Archamps, Haute-Savoie, Auvergne-Rhône-Alpes",
        "population": 1256,
        "icon": "fe-municipality"
    },
    {
        "insee": 74018,
        "code_postal": 74800,
        "latitude": 46.0981343308,
        "longitude": 6.3386699894,
        "nom_commune": "Arenthon",
        "code_departement": 74,
        "nom_departement": "Haute-Savoie",
        "code_region": 84,
        "nom_region": "Auvergne-Rhône-Alpes",
        "context": "Arenthon, Haute-Savoie, Auvergne-Rhône-Alpes",
        "population": 1142,
        "icon": "fe-municipality"
    },
    {
        "insee": 74019,
        "code_postal": 74370,
        "latitude": 45.9472669174,
        "longitude": 6.14837081563,
        "nom_commune": "Argonay",
        "code_departement": 74,
        "nom_departement": "Haute-Savoie",
        "code_region": 84,
        "nom_region": "Auvergne-Rhône-Alpes",
        "context": "Argonay, Haute-Savoie, Auvergne-Rhône-Alpes",
        "population": 1887,
        "icon": "fe-municipality"
    },
    {
        "insee": 74020,
        "code_postal": 74200,
        "latitude": 46.3523619359,
        "longitude": 6.51159949942,
        "nom_commune": "Armoy",
        "code_departement": 74,
        "nom_departement": "Haute-Savoie",
        "code_region": 84,
        "nom_region": "Auvergne-Rhône-Alpes",
        "context": "Armoy, Haute-Savoie, Auvergne-Rhône-Alpes",
        "population": 939,
        "icon": "fe-municipality"
    },
    {
        "insee": 74021,
        "code_postal": 74380,
        "latitude": 46.1606681382,
        "longitude": 6.26878505458,
        "nom_commune": "Arthaz-Pont-Notre-Dame",
        "code_departement": 74,
        "nom_departement": "Haute-Savoie",
        "code_region": 84,
        "nom_region": "Auvergne-Rhône-Alpes",
        "context": "Arthaz-Pont-Notre-Dame, Haute-Savoie, Auvergne-Rhône-Alpes",
        "population": 1167,
        "icon": "fe-municipality"
    },
    {
        "insee": 74022,
        "code_postal": 74570,
        "latitude": 45.9764432094,
        "longitude": 6.2368970464,
        "nom_commune": "Aviernoz",
        "code_departement": 74,
        "nom_departement": "Haute-Savoie",
        "code_region": 84,
        "nom_region": "Auvergne-Rhône-Alpes",
        "context": "Aviernoz, Haute-Savoie, Auvergne-Rhône-Alpes",
        "population": 615,
        "icon": "fe-municipality"
    },
    {
        "insee": 74024,
        "code_postal": 74130,
        "latitude": 46.0869924496,
        "longitude": 6.44601645014,
        "nom_commune": "Ayse",
        "code_departement": 74,
        "nom_departement": "Haute-Savoie",
        "code_region": 84,
        "nom_region": "Auvergne-Rhône-Alpes",
        "context": "Ayse, Haute-Savoie, Auvergne-Rhône-Alpes",
        "population": 1815,
        "icon": "fe-municipality"
    },
    {
        "insee": 74025,
        "code_postal": 74140,
        "latitude": 46.2932587435,
        "longitude": 6.34400093687,
        "nom_commune": "Ballaison",
        "code_departement": 74,
        "nom_departement": "Haute-Savoie",
        "code_region": 84,
        "nom_region": "Auvergne-Rhône-Alpes",
        "context": "Ballaison, Haute-Savoie, Auvergne-Rhône-Alpes",
        "population": 1097,
        "icon": "fe-municipality"
    },
    {
        "insee": 74026,
        "code_postal": 74330,
        "latitude": 45.9698450968,
        "longitude": 6.04498278395,
        "nom_commune": "Balme-de-Sillingy",
        "code_departement": 74,
        "nom_departement": "Haute-Savoie",
        "code_region": 84,
        "nom_region": "Auvergne-Rhône-Alpes",
        "context": "Balme-de-Sillingy, Haute-Savoie, Auvergne-Rhône-Alpes",
        "population": 3726,
        "icon": "fe-municipality"
    },
    {
        "insee": 74027,
        "code_postal": 74230,
        "latitude": 45.910029772,
        "longitude": 6.28546229311,
        "nom_commune": "Balme-de-Thuy",
        "code_departement": 74,
        "nom_departement": "Haute-Savoie",
        "code_region": 84,
        "nom_region": "Auvergne-Rhône-Alpes",
        "context": "Balme-de-Thuy, Haute-Savoie, Auvergne-Rhône-Alpes",
        "population": 328,
        "icon": "fe-municipality"
    },
    {
        "insee": 74029,
        "code_postal": 74910,
        "latitude": 45.9914416036,
        "longitude": 5.82815626577,
        "nom_commune": "Bassy",
        "code_departement": 74,
        "nom_departement": "Haute-Savoie",
        "code_region": 84,
        "nom_region": "Auvergne-Rhône-Alpes",
        "context": "Bassy, Haute-Savoie, Auvergne-Rhône-Alpes",
        "population": 328,
        "icon": "fe-municipality"
    },
    {
        "insee": 74030,
        "code_postal": 74430,
        "latitude": 46.2836072136,
        "longitude": 6.60860693452,
        "nom_commune": "Baume",
        "code_departement": 74,
        "nom_departement": "Haute-Savoie",
        "code_region": 84,
        "nom_region": "Auvergne-Rhône-Alpes",
        "context": "Baume, Haute-Savoie, Auvergne-Rhône-Alpes",
        "population": 226,
        "icon": "fe-municipality"
    },
    {
        "insee": 74031,
        "code_postal": 74160,
        "latitude": 46.0976635697,
        "longitude": 6.12074518078,
        "nom_commune": "Beaumont",
        "code_departement": 74,
        "nom_departement": "Haute-Savoie",
        "code_region": 84,
        "nom_region": "Auvergne-Rhône-Alpes",
        "context": "Beaumont, Haute-Savoie, Auvergne-Rhône-Alpes",
        "population": 1294,
        "icon": "fe-municipality"
    },
    {
        "insee": 74032,
        "code_postal": 74470,
        "latitude": 46.2276019394,
        "longitude": 6.55285416418,
        "nom_commune": "Bellevaux",
        "code_departement": 74,
        "nom_departement": "Haute-Savoie",
        "code_region": 84,
        "nom_region": "Auvergne-Rhône-Alpes",
        "context": "Bellevaux, Haute-Savoie, Auvergne-Rhône-Alpes",
        "population": 1157,
        "icon": "fe-municipality"
    },
    {
        "insee": 74033,
        "code_postal": 74500,
        "latitude": 46.3566554818,
        "longitude": 6.69898825662,
        "nom_commune": "Bernex",
        "code_departement": 74,
        "nom_departement": "Haute-Savoie",
        "code_region": 84,
        "nom_region": "Auvergne-Rhône-Alpes",
        "context": "Bernex, Haute-Savoie, Auvergne-Rhône-Alpes",
        "population": 853,
        "icon": "fe-municipality"
    },
    {
        "insee": 74034,
        "code_postal": 74430,
        "latitude": 46.2728593658,
        "longitude": 6.64024071432,
        "nom_commune": "Biot",
        "code_departement": 74,
        "nom_departement": "Haute-Savoie",
        "code_region": 84,
        "nom_region": "Auvergne-Rhône-Alpes",
        "context": "Biot, Haute-Savoie, Auvergne-Rhône-Alpes",
        "population": 340,
        "icon": "fe-municipality"
    },
    {
        "insee": 74035,
        "code_postal": 74150,
        "latitude": 45.8204275493,
        "longitude": 5.94977872948,
        "nom_commune": "Bloye",
        "code_departement": 74,
        "nom_departement": "Haute-Savoie",
        "code_region": 84,
        "nom_region": "Auvergne-Rhône-Alpes",
        "context": "Bloye, Haute-Savoie, Auvergne-Rhône-Alpes",
        "population": 428,
        "icon": "fe-municipality"
    },
    {
        "insee": 74036,
        "code_postal": 74290,
        "latitude": 45.8655021029,
        "longitude": 6.22227398882,
        "nom_commune": "Bluffy",
        "code_departement": 74,
        "nom_departement": "Haute-Savoie",
        "code_region": 84,
        "nom_region": "Auvergne-Rhône-Alpes",
        "context": "Bluffy, Haute-Savoie, Auvergne-Rhône-Alpes",
        "population": 248,
        "icon": "fe-municipality"
    },
    {
        "insee": 74037,
        "code_postal": 74420,
        "latitude": 46.2188768633,
        "longitude": 6.38530552261,
        "nom_commune": "Boëge",
        "code_departement": 74,
        "nom_departement": "Haute-Savoie",
        "code_region": 84,
        "nom_region": "Auvergne-Rhône-Alpes",
        "context": "Boëge, Haute-Savoie, Auvergne-Rhône-Alpes",
        "population": 1412,
        "icon": "fe-municipality"
    },
    {
        "insee": 74038,
        "code_postal": 74250,
        "latitude": 46.194241107,
        "longitude": 6.43929186038,
        "nom_commune": "Bogève",
        "code_departement": 74,
        "nom_departement": "Haute-Savoie",
        "code_region": 84,
        "nom_region": "Auvergne-Rhône-Alpes",
        "context": "Bogève, Haute-Savoie, Auvergne-Rhône-Alpes",
        "population": 831,
        "icon": "fe-municipality"
    },
    {
        "insee": 74040,
        "code_postal": 74380,
        "latitude": 46.1718364348,
        "longitude": 6.31931310923,
        "nom_commune": "Bonne",
        "code_departement": 74,
        "nom_departement": "Haute-Savoie",
        "code_region": 84,
        "nom_region": "Auvergne-Rhône-Alpes",
        "context": "Bonne, Haute-Savoie, Auvergne-Rhône-Alpes",
        "population": 2099,
        "icon": "fe-municipality"
    },
    {
        "insee": 74041,
        "code_postal": 74360,
        "latitude": 46.2948424143,
        "longitude": 6.66552754458,
        "nom_commune": "Bonnevaux",
        "code_departement": 74,
        "nom_departement": "Haute-Savoie",
        "code_region": 84,
        "nom_region": "Auvergne-Rhône-Alpes",
        "context": "Bonnevaux, Haute-Savoie, Auvergne-Rhône-Alpes",
        "population": 239,
        "icon": "fe-municipality"
    },
    {
        "insee": 74042,
        "code_postal": 74130,
        "latitude": 46.0739003968,
        "longitude": 6.40868532191,
        "nom_commune": "Bonneville",
        "code_departement": 74,
        "nom_departement": "Haute-Savoie",
        "code_region": 84,
        "nom_region": "Auvergne-Rhône-Alpes",
        "context": "Bonneville, Haute-Savoie, Auvergne-Rhône-Alpes",
        "population": 10457,
        "icon": "fe-town"
    },
    {
        "insee": 74043,
        "code_postal": 74890,
        "latitude": 46.2631816283,
        "longitude": 6.36089776128,
        "nom_commune": "Bons-en-Chablais",
        "code_departement": 74,
        "nom_departement": "Haute-Savoie",
        "code_region": 84,
        "nom_region": "Auvergne-Rhône-Alpes",
        "context": "Bons-en-Chablais, Haute-Savoie, Auvergne-Rhône-Alpes",
        "population": 3980,
        "icon": "fe-municipality"
    },
    {
        "insee": 74044,
        "code_postal": 74160,
        "latitude": 46.1500584591,
        "longitude": 6.17275446607,
        "nom_commune": "Bossey",
        "code_departement": 74,
        "nom_departement": "Haute-Savoie",
        "code_region": 84,
        "nom_region": "Auvergne-Rhône-Alpes",
        "context": "Bossey, Haute-Savoie, Auvergne-Rhône-Alpes",
        "population": 546,
        "icon": "fe-municipality"
    },
    {
        "insee": 74045,
        "code_postal": 74230,
        "latitude": 45.8045733703,
        "longitude": 6.38410878026,
        "nom_commune": "Bouchet-Mont-Charvin",
        "code_departement": 74,
        "nom_departement": "Haute-Savoie",
        "code_region": 84,
        "nom_region": "Auvergne-Rhône-Alpes",
        "context": "Bouchet-Mont-Charvin, Haute-Savoie, Auvergne-Rhône-Alpes",
        "population": 174,
        "icon": "fe-municipality"
    },
    {
        "insee": 74046,
        "code_postal": 74150,
        "latitude": 45.8509031709,
        "longitude": 5.98346432153,
        "nom_commune": "Boussy",
        "code_departement": 74,
        "nom_departement": "Haute-Savoie",
        "code_region": 84,
        "nom_region": "Auvergne-Rhône-Alpes",
        "context": "Boussy, Haute-Savoie, Auvergne-Rhône-Alpes",
        "population": 344,
        "icon": "fe-municipality"
    },
    {
        "insee": 74048,
        "code_postal": 74890,
        "latitude": 46.2692786912,
        "longitude": 6.39437723207,
        "nom_commune": "Brenthonne",
        "code_departement": 74,
        "nom_departement": "Haute-Savoie",
        "code_region": 84,
        "nom_region": "Auvergne-Rhône-Alpes",
        "context": "Brenthonne, Haute-Savoie, Auvergne-Rhône-Alpes",
        "population": 670,
        "icon": "fe-municipality"
    },
    {
        "insee": 74049,
        "code_postal": 74130,
        "latitude": 46.0352614624,
        "longitude": 6.43415213,
        "nom_commune": "Brizon",
        "code_departement": 74,
        "nom_departement": "Haute-Savoie",
        "code_region": 84,
        "nom_region": "Auvergne-Rhône-Alpes",
        "context": "Brizon, Haute-Savoie, Auvergne-Rhône-Alpes",
        "population": 383,
        "icon": "fe-municipality"
    },
    {
        "insee": 74050,
        "code_postal": 74420,
        "latitude": 46.2324473826,
        "longitude": 6.42604409853,
        "nom_commune": "Burdignin",
        "code_departement": 74,
        "nom_departement": "Haute-Savoie",
        "code_region": 84,
        "nom_region": "Auvergne-Rhône-Alpes",
        "context": "Burdignin, Haute-Savoie, Auvergne-Rhône-Alpes",
        "population": 569,
        "icon": "fe-municipality"
    },
    {
        "insee": 74051,
        "code_postal": 74350,
        "latitude": 46.021660163,
        "longitude": 6.04815697534,
        "nom_commune": "Cercier",
        "code_departement": 74,
        "nom_departement": "Haute-Savoie",
        "code_region": 84,
        "nom_region": "Auvergne-Rhône-Alpes",
        "context": "Cercier, Haute-Savoie, Auvergne-Rhône-Alpes",
        "population": 518,
        "icon": "fe-municipality"
    },
    {
        "insee": 74052,
        "code_postal": 74350,
        "latitude": 46.0623077421,
        "longitude": 6.03872026675,
        "nom_commune": "Cernex",
        "code_departement": 74,
        "nom_departement": "Haute-Savoie",
        "code_region": 84,
        "nom_region": "Auvergne-Rhône-Alpes",
        "context": "Cernex, Haute-Savoie, Auvergne-Rhône-Alpes",
        "population": 698,
        "icon": "fe-municipality"
    },
    {
        "insee": 74053,
        "code_postal": 74550,
        "latitude": 46.28114425,
        "longitude": 6.44750930568,
        "nom_commune": "Cervens",
        "code_departement": 74,
        "nom_departement": "Haute-Savoie",
        "code_region": 84,
        "nom_region": "Auvergne-Rhône-Alpes",
        "context": "Cervens, Haute-Savoie, Auvergne-Rhône-Alpes",
        "population": 729,
        "icon": "fe-municipality"
    },
    {
        "insee": 74054,
        "code_postal": 74540,
        "latitude": 45.7784395221,
        "longitude": 5.98960566934,
        "nom_commune": "Chainaz-les-Frasses",
        "code_departement": 74,
        "nom_departement": "Haute-Savoie",
        "code_region": 84,
        "nom_region": "Auvergne-Rhône-Alpes",
        "context": "Chainaz-les-Frasses, Haute-Savoie, Auvergne-Rhône-Alpes",
        "population": 517,
        "icon": "fe-municipality"
    },
    {
        "insee": 74055,
        "code_postal": 74910,
        "latitude": 46.0223204278,
        "longitude": 5.82687440424,
        "nom_commune": "Challonges",
        "code_departement": 74,
        "nom_departement": "Haute-Savoie",
        "code_region": 84,
        "nom_region": "Auvergne-Rhône-Alpes",
        "context": "Challonges, Haute-Savoie, Auvergne-Rhône-Alpes",
        "population": 337,
        "icon": "fe-municipality"
    },
    {
        "insee": 74056,
        "code_postal": 74400,
        "latitude": 45.9309819111,
        "longitude": 6.92360096711,
        "nom_commune": "Chamonix-Mont-Blanc",
        "code_departement": 74,
        "nom_departement": "Haute-Savoie",
        "code_region": 84,
        "nom_region": "Auvergne-Rhône-Alpes",
        "context": "Chamonix-Mont-Blanc, Haute-Savoie, Auvergne-Rhône-Alpes",
        "population": 9829,
        "icon": "fe-municipality"
    },
    {
        "insee": 74057,
        "code_postal": 74500,
        "latitude": 46.3715803084,
        "longitude": 6.55369978172,
        "nom_commune": "Champanges",
        "code_departement": 74,
        "nom_departement": "Haute-Savoie",
        "code_region": 84,
        "nom_region": "Auvergne-Rhône-Alpes",
        "context": "Champanges, Haute-Savoie, Auvergne-Rhône-Alpes",
        "population": 753,
        "icon": "fe-municipality"
    },
    {
        "insee": 74058,
        "code_postal": 74360,
        "latitude": 46.3009535709,
        "longitude": 6.79280453698,
        "nom_commune": "Chapelle-d'Abondance",
        "code_departement": 74,
        "nom_departement": "Haute-Savoie",
        "code_region": 84,
        "nom_region": "Auvergne-Rhône-Alpes",
        "context": "Chapelle-d'Abondance, Haute-Savoie, Auvergne-Rhône-Alpes",
        "population": 719,
        "icon": "fe-municipality"
    },
    {
        "insee": 74059,
        "code_postal": 74800,
        "latitude": 46.0732040123,
        "longitude": 6.23904981825,
        "nom_commune": "Chapelle-Rambaud",
        "code_departement": 74,
        "nom_departement": "Haute-Savoie",
        "code_region": 84,
        "nom_region": "Auvergne-Rhône-Alpes",
        "context": "Chapelle-Rambaud, Haute-Savoie, Auvergne-Rhône-Alpes",
        "population": 178,
        "icon": "fe-municipality"
    },
    {
        "insee": 74060,
        "code_postal": 74410,
        "latitude": 45.7714927901,
        "longitude": 6.15405726067,
        "nom_commune": "Chapelle-Saint-Maurice",
        "code_departement": 74,
        "nom_departement": "Haute-Savoie",
        "code_region": 84,
        "nom_region": "Auvergne-Rhône-Alpes",
        "context": "Chapelle-Saint-Maurice, Haute-Savoie, Auvergne-Rhône-Alpes",
        "population": 115,
        "icon": "fe-municipality"
    },
    {
        "insee": 74061,
        "code_postal": 74540,
        "latitude": 45.8392480283,
        "longitude": 6.03922674801,
        "nom_commune": "Chapeiry",
        "code_departement": 74,
        "nom_departement": "Haute-Savoie",
        "code_region": 84,
        "nom_region": "Auvergne-Rhône-Alpes",
        "context": "Chapeiry, Haute-Savoie, Auvergne-Rhône-Alpes",
        "population": 598,
        "icon": "fe-municipality"
    },
    {
        "insee": 74062,
        "code_postal": 74370,
        "latitude": 45.9825276436,
        "longitude": 6.15767160259,
        "nom_commune": "Charvonnex",
        "code_departement": 74,
        "nom_departement": "Haute-Savoie",
        "code_region": 84,
        "nom_region": "Auvergne-Rhône-Alpes",
        "context": "Charvonnex, Haute-Savoie, Auvergne-Rhône-Alpes",
        "population": 757,
        "icon": "fe-municipality"
    },
    {
        "insee": 74063,
        "code_postal": 74390,
        "latitude": 46.2490325973,
        "longitude": 6.81712790779,
        "nom_commune": "Châtel",
        "code_departement": 74,
        "nom_departement": "Haute-Savoie",
        "code_region": 84,
        "nom_region": "Auvergne-Rhône-Alpes",
        "context": "Châtel, Haute-Savoie, Auvergne-Rhône-Alpes",
        "population": 1195,
        "icon": "fe-municipality"
    },
    {
        "insee": 74064,
        "code_postal": 74300,
        "latitude": 46.0893520244,
        "longitude": 6.57817291187,
        "nom_commune": "Châtillon-sur-Cluses",
        "code_departement": 74,
        "nom_departement": "Haute-Savoie",
        "code_region": 84,
        "nom_region": "Auvergne-Rhône-Alpes",
        "context": "Châtillon-sur-Cluses, Haute-Savoie, Auvergne-Rhône-Alpes",
        "population": 1061,
        "icon": "fe-municipality"
    },
    {
        "insee": 74065,
        "code_postal": 74270,
        "latitude": 46.044949243,
        "longitude": 5.94515955142,
        "nom_commune": "Chaumont",
        "code_departement": 74,
        "nom_departement": "Haute-Savoie",
        "code_region": 84,
        "nom_region": "Auvergne-Rhône-Alpes",
        "context": "Chaumont, Haute-Savoie, Auvergne-Rhône-Alpes",
        "population": 382,
        "icon": "fe-municipality"
    },
    {
        "insee": 74066,
        "code_postal": 74270,
        "latitude": 46.0500384099,
        "longitude": 6.01652644319,
        "nom_commune": "Chavannaz",
        "code_departement": 74,
        "nom_departement": "Haute-Savoie",
        "code_region": 84,
        "nom_region": "Auvergne-Rhône-Alpes",
        "context": "Chavannaz, Haute-Savoie, Auvergne-Rhône-Alpes",
        "population": 137,
        "icon": "fe-municipality"
    },
    {
        "insee": 74067,
        "code_postal": 74650,
        "latitude": 45.8844744691,
        "longitude": 6.05040184575,
        "nom_commune": "Chavanod",
        "code_departement": 74,
        "nom_departement": "Haute-Savoie",
        "code_region": 84,
        "nom_region": "Auvergne-Rhône-Alpes",
        "context": "Chavanod, Haute-Savoie, Auvergne-Rhône-Alpes",
        "population": 1883,
        "icon": "fe-municipality"
    },
    {
        "insee": 74068,
        "code_postal": 74270,
        "latitude": 46.0499479891,
        "longitude": 5.858890983,
        "nom_commune": "Chêne-en-Semine",
        "code_departement": 74,
        "nom_departement": "Haute-Savoie",
        "code_region": 84,
        "nom_region": "Auvergne-Rhône-Alpes",
        "context": "Chêne-en-Semine, Haute-Savoie, Auvergne-Rhône-Alpes",
        "population": 257,
        "icon": "fe-municipality"
    },
    {
        "insee": 74069,
        "code_postal": 74520,
        "latitude": 46.1028404412,
        "longitude": 5.9906719812,
        "nom_commune": "Chênex",
        "code_departement": 74,
        "nom_departement": "Haute-Savoie",
        "code_region": 84,
        "nom_region": "Auvergne-Rhône-Alpes",
        "context": "Chênex, Haute-Savoie, Auvergne-Rhône-Alpes",
        "population": 365,
        "icon": "fe-municipality"
    },
    {
        "insee": 74070,
        "code_postal": 74140,
        "latitude": 46.3104075076,
        "longitude": 6.26773142669,
        "nom_commune": "Chens-sur-Léman",
        "code_departement": 74,
        "nom_departement": "Haute-Savoie",
        "code_region": 84,
        "nom_region": "Auvergne-Rhône-Alpes",
        "context": "Chens-sur-Léman, Haute-Savoie, Auvergne-Rhône-Alpes",
        "population": 1274,
        "icon": "fe-municipality"
    },
    {
        "insee": 74071,
        "code_postal": 74270,
        "latitude": 46.0407218951,
        "longitude": 5.90635701971,
        "nom_commune": "Chessenaz",
        "code_departement": 74,
        "nom_departement": "Haute-Savoie",
        "code_region": 84,
        "nom_region": "Auvergne-Rhône-Alpes",
        "context": "Chessenaz, Haute-Savoie, Auvergne-Rhône-Alpes",
        "population": 154,
        "icon": "fe-municipality"
    },
    {
        "insee": 74072,
        "code_postal": 74210,
        "latitude": 45.7302662541,
        "longitude": 6.20797432213,
        "nom_commune": "Chevaline",
        "code_departement": 74,
        "nom_departement": "Haute-Savoie",
        "code_region": 84,
        "nom_region": "Auvergne-Rhône-Alpes",
        "context": "Chevaline, Haute-Savoie, Auvergne-Rhône-Alpes",
        "population": 196,
        "icon": "fe-municipality"
    },
    {
        "insee": 74073,
        "code_postal": 74500,
        "latitude": 46.3330385867,
        "longitude": 6.64071625327,
        "nom_commune": "Chevenoz",
        "code_departement": 74,
        "nom_departement": "Haute-Savoie",
        "code_region": 84,
        "nom_region": "Auvergne-Rhône-Alpes",
        "context": "Chevenoz, Haute-Savoie, Auvergne-Rhône-Alpes",
        "population": 502,
        "icon": "fe-municipality"
    },
    {
        "insee": 74074,
        "code_postal": 74520,
        "latitude": 46.1120536918,
        "longitude": 5.91128750728,
        "nom_commune": "Chevrier",
        "code_departement": 74,
        "nom_departement": "Haute-Savoie",
        "code_region": 84,
        "nom_region": "Auvergne-Rhône-Alpes",
        "context": "Chevrier, Haute-Savoie, Auvergne-Rhône-Alpes",
        "population": 306,
        "icon": "fe-municipality"
    },
    {
        "insee": 74075,
        "code_postal": 74270,
        "latitude": 45.9892543857,
        "longitude": 5.95663892885,
        "nom_commune": "Chilly",
        "code_departement": 74,
        "nom_departement": "Haute-Savoie",
        "code_region": 84,
        "nom_region": "Auvergne-Rhône-Alpes",
        "context": "Chilly, Haute-Savoie, Auvergne-Rhône-Alpes",
        "population": 939,
        "icon": "fe-municipality"
    },
    {
        "insee": 74076,
        "code_postal": 74330,
        "latitude": 45.9970301608,
        "longitude": 6.05417234636,
        "nom_commune": "Choisy",
        "code_departement": 74,
        "nom_departement": "Haute-Savoie",
        "code_region": 84,
        "nom_region": "Auvergne-Rhône-Alpes",
        "context": "Choisy, Haute-Savoie, Auvergne-Rhône-Alpes",
        "population": 1364,
        "icon": "fe-municipality"
    },
    {
        "insee": 74077,
        "code_postal": 74270,
        "latitude": 46.074723886,
        "longitude": 5.89580535006,
        "nom_commune": "Clarafond-Arcine",
        "code_departement": 74,
        "nom_departement": "Haute-Savoie",
        "code_region": 84,
        "nom_region": "Auvergne-Rhône-Alpes",
        "context": "Clarafond-Arcine, Haute-Savoie, Auvergne-Rhône-Alpes",
        "population": 707,
        "icon": "fe-municipality"
    },
    {
        "insee": 74078,
        "code_postal": 74270,
        "latitude": 45.9734444894,
        "longitude": 5.90937510902,
        "nom_commune": "Clermont",
        "code_departement": 74,
        "nom_departement": "Haute-Savoie",
        "code_region": 84,
        "nom_region": "Auvergne-Rhône-Alpes",
        "context": "Clermont, Haute-Savoie, Auvergne-Rhône-Alpes",
        "population": 331,
        "icon": "fe-municipality"
    },
    {
        "insee": 74079,
        "code_postal": 74230,
        "latitude": 45.8448702892,
        "longitude": 6.32686437969,
        "nom_commune": "Clefs",
        "code_departement": 74,
        "nom_departement": "Haute-Savoie",
        "code_region": 84,
        "nom_region": "Auvergne-Rhône-Alpes",
        "context": "Clefs, Haute-Savoie, Auvergne-Rhône-Alpes",
        "population": 472,
        "icon": "fe-municipality"
    },
    {
        "insee": 74080,
        "code_postal": 74220,
        "latitude": 45.9001389505,
        "longitude": 6.46031714364,
        "nom_commune": "Clusaz",
        "code_departement": 74,
        "nom_departement": "Haute-Savoie",
        "code_region": 84,
        "nom_region": "Auvergne-Rhône-Alpes",
        "context": "Clusaz, Haute-Savoie, Auvergne-Rhône-Alpes",
        "population": 2026,
        "icon": "fe-municipality"
    },
    {
        "insee": 74081,
        "code_postal": 74300,
        "latitude": 46.0631088613,
        "longitude": 6.57892080059,
        "nom_commune": "Cluses",
        "code_departement": 74,
        "nom_departement": "Haute-Savoie",
        "code_region": 84,
        "nom_region": "Auvergne-Rhône-Alpes",
        "context": "Cluses, Haute-Savoie, Auvergne-Rhône-Alpes",
        "population": 17720,
        "icon": "fe-town"
    },
    {
        "insee": 74082,
        "code_postal": 74160,
        "latitude": 46.1362755824,
        "longitude": 6.16071125763,
        "nom_commune": "Collonges-sous-Salève",
        "code_departement": 74,
        "nom_departement": "Haute-Savoie",
        "code_region": 84,
        "nom_region": "Auvergne-Rhône-Alpes",
        "context": "Collonges-sous-Salève, Haute-Savoie, Auvergne-Rhône-Alpes",
        "population": 3163,
        "icon": "fe-municipality"
    },
    {
        "insee": 74083,
        "code_postal": 74920,
        "latitude": 45.8910313929,
        "longitude": 6.63687678944,
        "nom_commune": "Combloux",
        "code_departement": 74,
        "nom_departement": "Haute-Savoie",
        "code_region": 84,
        "nom_region": "Auvergne-Rhône-Alpes",
        "context": "Combloux, Haute-Savoie, Auvergne-Rhône-Alpes",
        "population": 1992,
        "icon": "fe-municipality"
    },
    {
        "insee": 74085,
        "code_postal": 74170,
        "latitude": 45.7888971555,
        "longitude": 6.73152876295,
        "nom_commune": "Contamines-Montjoie",
        "code_departement": 74,
        "nom_departement": "Haute-Savoie",
        "code_region": 84,
        "nom_region": "Auvergne-Rhône-Alpes",
        "context": "Contamines-Montjoie, Haute-Savoie, Auvergne-Rhône-Alpes",
        "population": 1126,
        "icon": "fe-municipality"
    },
    {
        "insee": 74086,
        "code_postal": 74270,
        "latitude": 46.0216239121,
        "longitude": 5.98148486224,
        "nom_commune": "Contamine-Sarzin",
        "code_departement": 74,
        "nom_departement": "Haute-Savoie",
        "code_region": 84,
        "nom_region": "Auvergne-Rhône-Alpes",
        "context": "Contamine-Sarzin, Haute-Savoie, Auvergne-Rhône-Alpes",
        "population": 350,
        "icon": "fe-municipality"
    },
    {
        "insee": 74087,
        "code_postal": 74130,
        "latitude": 46.1334593706,
        "longitude": 6.33869457098,
        "nom_commune": "Contamine-sur-Arve",
        "code_departement": 74,
        "nom_departement": "Haute-Savoie",
        "code_region": 84,
        "nom_region": "Auvergne-Rhône-Alpes",
        "context": "Contamine-sur-Arve, Haute-Savoie, Auvergne-Rhône-Alpes",
        "population": 1345,
        "icon": "fe-municipality"
    },
    {
        "insee": 74088,
        "code_postal": 74350,
        "latitude": 46.0442257211,
        "longitude": 6.0703860483,
        "nom_commune": "Copponex",
        "code_departement": 74,
        "nom_departement": "Haute-Savoie",
        "code_region": 84,
        "nom_region": "Auvergne-Rhône-Alpes",
        "context": "Copponex, Haute-Savoie, Auvergne-Rhône-Alpes",
        "population": 619,
        "icon": "fe-municipality"
    },
    {
        "insee": 74089,
        "code_postal": 74700,
        "latitude": 45.909121538,
        "longitude": 6.56940992155,
        "nom_commune": "Cordon",
        "code_departement": 74,
        "nom_departement": "Haute-Savoie",
        "code_region": 84,
        "nom_region": "Auvergne-Rhône-Alpes",
        "context": "Cordon, Haute-Savoie, Auvergne-Rhône-Alpes",
        "population": 878,
        "icon": "fe-municipality"
    },
    {
        "insee": 74090,
        "code_postal": 74800,
        "latitude": 46.0897408945,
        "longitude": 6.29193924963,
        "nom_commune": "Cornier",
        "code_departement": 74,
        "nom_departement": "Haute-Savoie",
        "code_region": 84,
        "nom_region": "Auvergne-Rhône-Alpes",
        "context": "Cornier, Haute-Savoie, Auvergne-Rhône-Alpes",
        "population": 936,
        "icon": "fe-municipality"
    },
    {
        "insee": 74091,
        "code_postal": 74110,
        "latitude": 46.1811051133,
        "longitude": 6.63111937923,
        "nom_commune": "Côte-d'Arbroz",
        "code_departement": 74,
        "nom_departement": "Haute-Savoie",
        "code_region": 84,
        "nom_region": "Auvergne-Rhône-Alpes",
        "context": "Côte-d'Arbroz, Haute-Savoie, Auvergne-Rhône-Alpes",
        "population": 175,
        "icon": "fe-municipality"
    },
    {
        "insee": 74093,
        "code_postal": 74960,
        "latitude": 45.9017933456,
        "longitude": 6.09977672068,
        "nom_commune": "Cran-Gevrier",
        "code_departement": 74,
        "nom_departement": "Haute-Savoie",
        "code_region": 84,
        "nom_region": "Auvergne-Rhône-Alpes",
        "context": "Cran-Gevrier, Haute-Savoie, Auvergne-Rhône-Alpes",
        "population": 16442,
        "icon": "fe-town"
    },
    {
        "insee": 74094,
        "code_postal": 74380,
        "latitude": 46.1974383697,
        "longitude": 6.30389958032,
        "nom_commune": "Cranves-Sales",
        "code_departement": 74,
        "nom_departement": "Haute-Savoie",
        "code_region": 84,
        "nom_region": "Auvergne-Rhône-Alpes",
        "context": "Cranves-Sales, Haute-Savoie, Auvergne-Rhône-Alpes",
        "population": 4361,
        "icon": "fe-municipality"
    },
    {
        "insee": 74095,
        "code_postal": 74150,
        "latitude": 45.9467841367,
        "longitude": 5.90312519314,
        "nom_commune": "Crempigny-Bonneguête",
        "code_departement": 74,
        "nom_departement": "Haute-Savoie",
        "code_region": 84,
        "nom_region": "Auvergne-Rhône-Alpes",
        "context": "Crempigny-Bonneguête, Haute-Savoie, Auvergne-Rhône-Alpes",
        "population": 167,
        "icon": "fe-municipality"
    },
    {
        "insee": 74096,
        "code_postal": 74350,
        "latitude": 46.0362105004,
        "longitude": 6.11527700259,
        "nom_commune": "Cruseilles",
        "code_departement": 74,
        "nom_departement": "Haute-Savoie",
        "code_region": 84,
        "nom_region": "Auvergne-Rhône-Alpes",
        "context": "Cruseilles, Haute-Savoie, Auvergne-Rhône-Alpes",
        "population": 3184,
        "icon": "fe-municipality"
    },
    {
        "insee": 74097,
        "code_postal": 74540,
        "latitude": 45.7584929074,
        "longitude": 6.0333103006,
        "nom_commune": "Cusy",
        "code_departement": 74,
        "nom_departement": "Haute-Savoie",
        "code_region": 84,
        "nom_region": "Auvergne-Rhône-Alpes",
        "context": "Cusy, Haute-Savoie, Auvergne-Rhône-Alpes",
        "population": 1280,
        "icon": "fe-municipality"
    },
    {
        "insee": 74098,
        "code_postal": 74350,
        "latitude": 45.9769889587,
        "longitude": 6.10863397469,
        "nom_commune": "Cuvat",
        "code_departement": 74,
        "nom_departement": "Haute-Savoie",
        "code_region": 84,
        "nom_region": "Auvergne-Rhône-Alpes",
        "context": "Cuvat, Haute-Savoie, Auvergne-Rhône-Alpes",
        "population": 773,
        "icon": "fe-municipality"
    },
    {
        "insee": 74099,
        "code_postal": 74120,
        "latitude": 45.8739226707,
        "longitude": 6.6331062739,
        "nom_commune": "Demi-Quartier",
        "code_departement": 74,
        "nom_departement": "Haute-Savoie",
        "code_region": 84,
        "nom_region": "Auvergne-Rhône-Alpes",
        "context": "Demi-Quartier, Haute-Savoie, Auvergne-Rhône-Alpes",
        "population": 1031,
        "icon": "fe-municipality"
    },
    {
        "insee": 74100,
        "code_postal": 74270,
        "latitude": 45.9994978895,
        "longitude": 5.88777092004,
        "nom_commune": "Desingy",
        "code_departement": 74,
        "nom_departement": "Haute-Savoie",
        "code_region": 84,
        "nom_region": "Auvergne-Rhône-Alpes",
        "context": "Desingy, Haute-Savoie, Auvergne-Rhône-Alpes",
        "population": 603,
        "icon": "fe-municipality"
    },
    {
        "insee": 74101,
        "code_postal": 74520,
        "latitude": 46.0886545538,
        "longitude": 5.94974416216,
        "nom_commune": "Dingy-en-Vuache",
        "code_departement": 74,
        "nom_departement": "Haute-Savoie",
        "code_region": 84,
        "nom_region": "Auvergne-Rhône-Alpes",
        "context": "Dingy-en-Vuache, Haute-Savoie, Auvergne-Rhône-Alpes",
        "population": 395,
        "icon": "fe-municipality"
    },
    {
        "insee": 74102,
        "code_postal": 74230,
        "latitude": 45.9289752964,
        "longitude": 6.25044685082,
        "nom_commune": "Dingy-Saint-Clair",
        "code_departement": 74,
        "nom_departement": "Haute-Savoie",
        "code_region": 84,
        "nom_region": "Auvergne-Rhône-Alpes",
        "context": "Dingy-Saint-Clair, Haute-Savoie, Auvergne-Rhône-Alpes",
        "population": 916,
        "icon": "fe-municipality"
    },
    {
        "insee": 74103,
        "code_postal": 74700,
        "latitude": 45.9071921608,
        "longitude": 6.66391720268,
        "nom_commune": "Domancy",
        "code_departement": 74,
        "nom_departement": "Haute-Savoie",
        "code_region": 84,
        "nom_region": "Auvergne-Rhône-Alpes",
        "context": "Domancy, Haute-Savoie, Auvergne-Rhône-Alpes",
        "population": 1710,
        "icon": "fe-municipality"
    },
    {
        "insee": 74104,
        "code_postal": 74210,
        "latitude": 45.7709274033,
        "longitude": 6.22183215069,
        "nom_commune": "Doussard",
        "code_departement": 74,
        "nom_departement": "Haute-Savoie",
        "code_region": 84,
        "nom_region": "Auvergne-Rhône-Alpes",
        "context": "Doussard, Haute-Savoie, Auvergne-Rhône-Alpes",
        "population": 2780,
        "icon": "fe-municipality"
    },
    {
        "insee": 74105,
        "code_postal": 74140,
        "latitude": 46.3063459721,
        "longitude": 6.29894207485,
        "nom_commune": "Douvaine",
        "code_departement": 74,
        "nom_departement": "Haute-Savoie",
        "code_region": 84,
        "nom_region": "Auvergne-Rhône-Alpes",
        "context": "Douvaine, Haute-Savoie, Auvergne-Rhône-Alpes",
        "population": 3871,
        "icon": "fe-municipality"
    },
    {
        "insee": 74106,
        "code_postal": 74550,
        "latitude": 46.2957245555,
        "longitude": 6.4729982985,
        "nom_commune": "Draillant",
        "code_departement": 74,
        "nom_departement": "Haute-Savoie",
        "code_region": 84,
        "nom_region": "Auvergne-Rhône-Alpes",
        "context": "Draillant, Haute-Savoie, Auvergne-Rhône-Alpes",
        "population": 1830,
        "icon": "fe-municipality"
    },
    {
        "insee": 74107,
        "code_postal": 74270,
        "latitude": 45.961959396,
        "longitude": 5.8811939602,
        "nom_commune": "Droisy",
        "code_departement": 74,
        "nom_departement": "Haute-Savoie",
        "code_region": 84,
        "nom_region": "Auvergne-Rhône-Alpes",
        "context": "Droisy, Haute-Savoie, Auvergne-Rhône-Alpes",
        "population": 70,
        "icon": "fe-municipality"
    },
    {
        "insee": 74108,
        "code_postal": 74410,
        "latitude": 45.8204516691,
        "longitude": 6.19524357933,
        "nom_commune": "Duingt",
        "code_departement": 74,
        "nom_departement": "Haute-Savoie",
        "code_region": 84,
        "nom_region": "Auvergne-Rhône-Alpes",
        "context": "Duingt, Haute-Savoie, Auvergne-Rhône-Alpes",
        "population": 798,
        "icon": "fe-municipality"
    },
    {
        "insee": 74109,
        "code_postal": 1200,
        "latitude": 46.0837640303,
        "longitude": 5.84669856092,
        "nom_commune": "Éloise",
        "code_departement": 74,
        "nom_departement": "Haute-Savoie",
        "code_region": 84,
        "nom_region": "Auvergne-Rhône-Alpes",
        "context": "Éloise, Haute-Savoie, Auvergne-Rhône-Alpes",
        "population": 719,
        "icon": "fe-municipality"
    },
    {
        "insee": 74110,
        "code_postal": 74130,
        "latitude": 45.9504525133,
        "longitude": 6.3755250744,
        "nom_commune": "Entremont",
        "code_departement": 74,
        "nom_departement": "Haute-Savoie",
        "code_region": 84,
        "nom_region": "Auvergne-Rhône-Alpes",
        "context": "Entremont, Haute-Savoie, Auvergne-Rhône-Alpes",
        "population": 461,
        "icon": "fe-municipality"
    },
    {
        "insee": 74111,
        "code_postal": 74410,
        "latitude": 45.7764785792,
        "longitude": 6.18131365622,
        "nom_commune": "Entrevernes",
        "code_departement": 74,
        "nom_departement": "Haute-Savoie",
        "code_region": 84,
        "nom_region": "Auvergne-Rhône-Alpes",
        "context": "Entrevernes, Haute-Savoie, Auvergne-Rhône-Alpes",
        "population": 168,
        "icon": "fe-municipality"
    },
    {
        "insee": 74112,
        "code_postal": 74330,
        "latitude": 45.9440370403,
        "longitude": 6.08226977374,
        "nom_commune": "Epagny Metz-Tessy",
        "code_departement": 74,
        "nom_departement": "Haute-Savoie",
        "code_region": 84,
        "nom_region": "Auvergne-Rhône-Alpes",
        "context": "Epagny Metz-Tessy, Haute-Savoie, Auvergne-Rhône-Alpes",
        "population": 3233,
        "icon": "fe-municipality"
    },
    {
        "insee": 74114,
        "code_postal": 74110,
        "latitude": 46.2023206067,
        "longitude": 6.660151187,
        "nom_commune": "Essert-Romand",
        "code_departement": 74,
        "nom_departement": "Haute-Savoie",
        "code_region": 84,
        "nom_region": "Auvergne-Rhône-Alpes",
        "context": "Essert-Romand, Haute-Savoie, Auvergne-Rhône-Alpes",
        "population": 352,
        "icon": "fe-municipality"
    },
    {
        "insee": 74116,
        "code_postal": 74800,
        "latitude": 46.060819717,
        "longitude": 6.26988707785,
        "nom_commune": "Etaux",
        "code_departement": 74,
        "nom_departement": "Haute-Savoie",
        "code_region": 84,
        "nom_region": "Auvergne-Rhône-Alpes",
        "context": "Etaux, Haute-Savoie, Auvergne-Rhône-Alpes",
        "population": 1089,
        "icon": "fe-municipality"
    },
    {
        "insee": 74117,
        "code_postal": 74150,
        "latitude": 45.8924317262,
        "longitude": 6.0079458329,
        "nom_commune": "Étercy",
        "code_departement": 74,
        "nom_departement": "Haute-Savoie",
        "code_region": 84,
        "nom_region": "Auvergne-Rhône-Alpes",
        "context": "Étercy, Haute-Savoie, Auvergne-Rhône-Alpes",
        "population": 630,
        "icon": "fe-municipality"
    },
    {
        "insee": 74118,
        "code_postal": 74100,
        "latitude": 46.1698202877,
        "longitude": 6.20839249952,
        "nom_commune": "Étrembières",
        "code_departement": 74,
        "nom_departement": "Haute-Savoie",
        "code_region": 84,
        "nom_region": "Auvergne-Rhône-Alpes",
        "context": "Étrembières, Haute-Savoie, Auvergne-Rhône-Alpes",
        "population": 1429,
        "icon": "fe-municipality"
    },
    {
        "insee": 74119,
        "code_postal": 74500,
        "latitude": 46.3924102379,
        "longitude": 6.58612507528,
        "nom_commune": "Évian-les-Bains",
        "code_departement": 74,
        "nom_departement": "Haute-Savoie",
        "code_region": 84,
        "nom_region": "Auvergne-Rhône-Alpes",
        "context": "Évian-les-Bains, Haute-Savoie, Auvergne-Rhône-Alpes",
        "population": 7278,
        "icon": "fe-municipality"
    },
    {
        "insee": 74120,
        "code_postal": 74570,
        "latitude": 46.0421036287,
        "longitude": 6.22183912174,
        "nom_commune": "Évires",
        "code_departement": 74,
        "nom_departement": "Haute-Savoie",
        "code_region": 84,
        "nom_region": "Auvergne-Rhône-Alpes",
        "context": "Évires, Haute-Savoie, Auvergne-Rhône-Alpes",
        "population": 1062,
        "icon": "fe-municipality"
    },
    {
        "insee": 74121,
        "code_postal": 74140,
        "latitude": 46.3467214365,
        "longitude": 6.34122172541,
        "nom_commune": "Excenevex",
        "code_departement": 74,
        "nom_departement": "Haute-Savoie",
        "code_region": 84,
        "nom_region": "Auvergne-Rhône-Alpes",
        "context": "Excenevex, Haute-Savoie, Auvergne-Rhône-Alpes",
        "population": 681,
        "icon": "fe-municipality"
    },
    {
        "insee": 74122,
        "code_postal": 74130,
        "latitude": 46.1164159018,
        "longitude": 6.36907611887,
        "nom_commune": "Faucigny",
        "code_departement": 74,
        "nom_departement": "Haute-Savoie",
        "code_region": 84,
        "nom_region": "Auvergne-Rhône-Alpes",
        "context": "Faucigny, Haute-Savoie, Auvergne-Rhône-Alpes",
        "population": 411,
        "icon": "fe-municipality"
    },
    {
        "insee": 74123,
        "code_postal": 74210,
        "latitude": 45.749197611,
        "longitude": 6.2852126691,
        "nom_commune": "Faverges-Seythenex",
        "code_departement": 74,
        "nom_departement": "Haute-Savoie",
        "code_region": 84,
        "nom_region": "Auvergne-Rhône-Alpes",
        "context": "Faverges-Seythenex, Haute-Savoie, Auvergne-Rhône-Alpes",
        "population": 6305,
        "icon": "fe-municipality"
    },
    {
        "insee": 74124,
        "code_postal": 74160,
        "latitude": 46.1104409048,
        "longitude": 6.07310572582,
        "nom_commune": "Feigères",
        "code_departement": 74,
        "nom_departement": "Haute-Savoie",
        "code_region": 84,
        "nom_region": "Auvergne-Rhône-Alpes",
        "context": "Feigères, Haute-Savoie, Auvergne-Rhône-Alpes",
        "population": 1231,
        "icon": "fe-municipality"
    },
    {
        "insee": 74126,
        "code_postal": 74890,
        "latitude": 46.2708634498,
        "longitude": 6.42354470529,
        "nom_commune": "Fessy",
        "code_departement": 74,
        "nom_departement": "Haute-Savoie",
        "code_region": 84,
        "nom_region": "Auvergne-Rhône-Alpes",
        "context": "Fessy, Haute-Savoie, Auvergne-Rhône-Alpes",
        "population": 590,
        "icon": "fe-municipality"
    },
    {
        "insee": 74127,
        "code_postal": 74500,
        "latitude": 46.3490789194,
        "longitude": 6.5652955969,
        "nom_commune": "Féternes",
        "code_departement": 74,
        "nom_departement": "Haute-Savoie",
        "code_region": 84,
        "nom_region": "Auvergne-Rhône-Alpes",
        "context": "Féternes, Haute-Savoie, Auvergne-Rhône-Alpes",
        "population": 1153,
        "icon": "fe-municipality"
    },
    {
        "insee": 74128,
        "code_postal": 74250,
        "latitude": 46.1661884948,
        "longitude": 6.35020094115,
        "nom_commune": "Fillinges",
        "code_departement": 74,
        "nom_departement": "Haute-Savoie",
        "code_region": 84,
        "nom_region": "Auvergne-Rhône-Alpes",
        "context": "Fillinges, Haute-Savoie, Auvergne-Rhône-Alpes",
        "population": 2442,
        "icon": "fe-municipality"
    },
    {
        "insee": 74129,
        "code_postal": 74200,
        "latitude": 46.3179930768,
        "longitude": 6.61587770566,
        "nom_commune": "Forclaz",
        "code_departement": 74,
        "nom_departement": "Haute-Savoie",
        "code_region": 84,
        "nom_region": "Auvergne-Rhône-Alpes",
        "context": "Forclaz, Haute-Savoie, Auvergne-Rhône-Alpes",
        "population": 195,
        "icon": "fe-municipality"
    },
    {
        "insee": 74130,
        "code_postal": 74910,
        "latitude": 46.0440349953,
        "longitude": 5.82444988041,
        "nom_commune": "Franclens",
        "code_departement": 74,
        "nom_departement": "Haute-Savoie",
        "code_region": 84,
        "nom_region": "Auvergne-Rhône-Alpes",
        "context": "Franclens, Haute-Savoie, Auvergne-Rhône-Alpes",
        "population": 335,
        "icon": "fe-municipality"
    },
    {
        "insee": 74131,
        "code_postal": 74270,
        "latitude": 46.0231025542,
        "longitude": 5.92267414864,
        "nom_commune": "Frangy",
        "code_departement": 74,
        "nom_departement": "Haute-Savoie",
        "code_region": 84,
        "nom_region": "Auvergne-Rhône-Alpes",
        "context": "Frangy, Haute-Savoie, Auvergne-Rhône-Alpes",
        "population": 1596,
        "icon": "fe-municipality"
    },
    {
        "insee": 74133,
        "code_postal": 74240,
        "latitude": 46.1818085953,
        "longitude": 6.20707666644,
        "nom_commune": "Gaillard",
        "code_departement": 74,
        "nom_departement": "Haute-Savoie",
        "code_region": 84,
        "nom_region": "Auvergne-Rhône-Alpes",
        "context": "Gaillard, Haute-Savoie, Auvergne-Rhône-Alpes",
        "population": 9949,
        "icon": "fe-municipality"
    },
    {
        "insee": 74134,
        "code_postal": 74260,
        "latitude": 46.1542288253,
        "longitude": 6.66014566051,
        "nom_commune": "Gets",
        "code_departement": 74,
        "nom_departement": "Haute-Savoie",
        "code_region": 84,
        "nom_region": "Auvergne-Rhône-Alpes",
        "context": "Gets, Haute-Savoie, Auvergne-Rhône-Alpes",
        "population": 1352,
        "icon": "fe-municipality"
    },
    {
        "insee": 74135,
        "code_postal": 74210,
        "latitude": 45.7384038811,
        "longitude": 6.24575065655,
        "nom_commune": "Giez",
        "code_departement": 74,
        "nom_departement": "Haute-Savoie",
        "code_region": 84,
        "nom_region": "Auvergne-Rhône-Alpes",
        "context": "Giez, Haute-Savoie, Auvergne-Rhône-Alpes",
        "population": 448,
        "icon": "fe-municipality"
    },
    {
        "insee": 74136,
        "code_postal": 74450,
        "latitude": 45.9562174482,
        "longitude": 6.47641784295,
        "nom_commune": "Grand-Bornand",
        "code_departement": 74,
        "nom_departement": "Haute-Savoie",
        "code_region": 84,
        "nom_region": "Auvergne-Rhône-Alpes",
        "context": "Grand-Bornand, Haute-Savoie, Auvergne-Rhône-Alpes",
        "population": 2130,
        "icon": "fe-municipality"
    },
    {
        "insee": 74137,
        "code_postal": 74570,
        "latitude": 46.0176333128,
        "longitude": 6.17496504174,
        "nom_commune": "Groisy",
        "code_departement": 74,
        "nom_departement": "Haute-Savoie",
        "code_region": 84,
        "nom_region": "Auvergne-Rhône-Alpes",
        "context": "Groisy, Haute-Savoie, Auvergne-Rhône-Alpes",
        "population": 2606,
        "icon": "fe-municipality"
    },
    {
        "insee": 74138,
        "code_postal": 74540,
        "latitude": 45.7831959946,
        "longitude": 6.06312063481,
        "nom_commune": "Gruffy",
        "code_departement": 74,
        "nom_departement": "Haute-Savoie",
        "code_region": 84,
        "nom_region": "Auvergne-Rhône-Alpes",
        "context": "Gruffy, Haute-Savoie, Auvergne-Rhône-Alpes",
        "population": 1161,
        "icon": "fe-municipality"
    },
    {
        "insee": 74139,
        "code_postal": 74420,
        "latitude": 46.2330939582,
        "longitude": 6.462221779,
        "nom_commune": "Habère-Lullin",
        "code_departement": 74,
        "nom_departement": "Haute-Savoie",
        "code_region": 84,
        "nom_region": "Auvergne-Rhône-Alpes",
        "context": "Habère-Lullin, Haute-Savoie, Auvergne-Rhône-Alpes",
        "population": 634,
        "icon": "fe-municipality"
    },
    {
        "insee": 74140,
        "code_postal": 74420,
        "latitude": 46.2555235551,
        "longitude": 6.47324374853,
        "nom_commune": "Habère-Poche",
        "code_departement": 74,
        "nom_departement": "Haute-Savoie",
        "code_region": 84,
        "nom_region": "Auvergne-Rhône-Alpes",
        "context": "Habère-Poche, Haute-Savoie, Auvergne-Rhône-Alpes",
        "population": 729,
        "icon": "fe-municipality"
    },
    {
        "insee": 74141,
        "code_postal": 74150,
        "latitude": 45.9053969154,
        "longitude": 5.97847450903,
        "nom_commune": "Hauteville-sur-Fier",
        "code_departement": 74,
        "nom_departement": "Haute-Savoie",
        "code_region": 84,
        "nom_region": "Auvergne-Rhône-Alpes",
        "context": "Hauteville-sur-Fier, Haute-Savoie, Auvergne-Rhône-Alpes",
        "population": 685,
        "icon": "fe-municipality"
    },
    {
        "insee": 74142,
        "code_postal": 74540,
        "latitude": 45.791943752,
        "longitude": 6.01056501234,
        "nom_commune": "Héry-sur-Alby",
        "code_departement": 74,
        "nom_departement": "Haute-Savoie",
        "code_region": 84,
        "nom_region": "Auvergne-Rhône-Alpes",
        "context": "Héry-sur-Alby, Haute-Savoie, Auvergne-Rhône-Alpes",
        "population": 709,
        "icon": "fe-municipality"
    },
    {
        "insee": 74143,
        "code_postal": 74310,
        "latitude": 45.8968732063,
        "longitude": 6.8000932715,
        "nom_commune": "Houches",
        "code_departement": 74,
        "nom_departement": "Haute-Savoie",
        "code_region": 84,
        "nom_region": "Auvergne-Rhône-Alpes",
        "context": "Houches, Haute-Savoie, Auvergne-Rhône-Alpes",
        "population": 2708,
        "icon": "fe-municipality"
    },
    {
        "insee": 74144,
        "code_postal": 74520,
        "latitude": 46.0765856703,
        "longitude": 5.98885636261,
        "nom_commune": "Jonzier-Épagny",
        "code_departement": 74,
        "nom_departement": "Haute-Savoie",
        "code_region": 84,
        "nom_region": "Auvergne-Rhône-Alpes",
        "context": "Jonzier-Épagny, Haute-Savoie, Auvergne-Rhône-Alpes",
        "population": 515,
        "icon": "fe-municipality"
    },
    {
        "insee": 74145,
        "code_postal": 74100,
        "latitude": 46.2159934836,
        "longitude": 6.2901767957,
        "nom_commune": "Juvigny",
        "code_departement": 74,
        "nom_departement": "Haute-Savoie",
        "code_region": 84,
        "nom_region": "Auvergne-Rhône-Alpes",
        "context": "Juvigny, Haute-Savoie, Auvergne-Rhône-Alpes",
        "population": 540,
        "icon": "fe-municipality"
    },
    {
        "insee": 74146,
        "code_postal": 74500,
        "latitude": 46.369808059,
        "longitude": 6.58783064485,
        "nom_commune": "Larringes",
        "code_departement": 74,
        "nom_departement": "Haute-Savoie",
        "code_region": 84,
        "nom_region": "Auvergne-Rhône-Alpes",
        "context": "Larringes, Haute-Savoie, Auvergne-Rhône-Alpes",
        "population": 974,
        "icon": "fe-municipality"
    },
    {
        "insee": 74147,
        "code_postal": 74210,
        "latitude": 45.7732607321,
        "longitude": 6.19555768621,
        "nom_commune": "Lathuile",
        "code_departement": 74,
        "nom_departement": "Haute-Savoie",
        "code_region": 84,
        "nom_region": "Auvergne-Rhône-Alpes",
        "context": "Lathuile, Haute-Savoie, Auvergne-Rhône-Alpes",
        "population": 729,
        "icon": "fe-municipality"
    },
    {
        "insee": 74148,
        "code_postal": 74320,
        "latitude": 45.7750459129,
        "longitude": 6.11849070484,
        "nom_commune": "Leschaux",
        "code_departement": 74,
        "nom_departement": "Haute-Savoie",
        "code_region": 84,
        "nom_region": "Auvergne-Rhône-Alpes",
        "context": "Leschaux, Haute-Savoie, Auvergne-Rhône-Alpes",
        "population": 258,
        "icon": "fe-municipality"
    },
    {
        "insee": 74150,
        "code_postal": 74140,
        "latitude": 46.2802184824,
        "longitude": 6.30399000794,
        "nom_commune": "Loisin",
        "code_departement": 74,
        "nom_departement": "Haute-Savoie",
        "code_region": 84,
        "nom_region": "Auvergne-Rhône-Alpes",
        "context": "Loisin, Haute-Savoie, Auvergne-Rhône-Alpes",
        "population": 1140,
        "icon": "fe-municipality"
    },
    {
        "insee": 74151,
        "code_postal": 74150,
        "latitude": 45.9107999793,
        "longitude": 5.88954497297,
        "nom_commune": "Lornay",
        "code_departement": 74,
        "nom_departement": "Haute-Savoie",
        "code_region": 84,
        "nom_region": "Auvergne-Rhône-Alpes",
        "context": "Lornay, Haute-Savoie, Auvergne-Rhône-Alpes",
        "population": 348,
        "icon": "fe-municipality"
    },
    {
        "insee": 74152,
        "code_postal": 74330,
        "latitude": 45.9038439081,
        "longitude": 6.03434039234,
        "nom_commune": "Lovagny",
        "code_departement": 74,
        "nom_departement": "Haute-Savoie",
        "code_region": 84,
        "nom_region": "Auvergne-Rhône-Alpes",
        "context": "Lovagny, Haute-Savoie, Auvergne-Rhône-Alpes",
        "population": 720,
        "icon": "fe-municipality"
    },
    {
        "insee": 74153,
        "code_postal": 74380,
        "latitude": 46.1940296525,
        "longitude": 6.32983573974,
        "nom_commune": "Lucinges",
        "code_departement": 74,
        "nom_departement": "Haute-Savoie",
        "code_region": 84,
        "nom_region": "Auvergne-Rhône-Alpes",
        "context": "Lucinges, Haute-Savoie, Auvergne-Rhône-Alpes",
        "population": 1212,
        "icon": "fe-municipality"
    },
    {
        "insee": 74154,
        "code_postal": 74500,
        "latitude": 46.3933090904,
        "longitude": 6.67397267401,
        "nom_commune": "Lugrin",
        "code_departement": 74,
        "nom_departement": "Haute-Savoie",
        "code_region": 84,
        "nom_region": "Auvergne-Rhône-Alpes",
        "context": "Lugrin, Haute-Savoie, Auvergne-Rhône-Alpes",
        "population": 2002,
        "icon": "fe-municipality"
    },
    {
        "insee": 74155,
        "code_postal": 74470,
        "latitude": 46.2792006557,
        "longitude": 6.51041633979,
        "nom_commune": "Lullin",
        "code_departement": 74,
        "nom_departement": "Haute-Savoie",
        "code_region": 84,
        "nom_region": "Auvergne-Rhône-Alpes",
        "context": "Lullin, Haute-Savoie, Auvergne-Rhône-Alpes",
        "population": 602,
        "icon": "fe-municipality"
    },
    {
        "insee": 74156,
        "code_postal": 74890,
        "latitude": 46.2927550589,
        "longitude": 6.40876638382,
        "nom_commune": "Lully",
        "code_departement": 74,
        "nom_departement": "Haute-Savoie",
        "code_region": 84,
        "nom_region": "Auvergne-Rhône-Alpes",
        "context": "Lully, Haute-Savoie, Auvergne-Rhône-Alpes",
        "population": 512,
        "icon": "fe-municipality"
    },
    {
        "insee": 74157,
        "code_postal": 74200,
        "latitude": 46.3337086128,
        "longitude": 6.52037884691,
        "nom_commune": "Lyaud",
        "code_departement": 74,
        "nom_departement": "Haute-Savoie",
        "code_region": 84,
        "nom_region": "Auvergne-Rhône-Alpes",
        "context": "Lyaud, Haute-Savoie, Auvergne-Rhône-Alpes",
        "population": 1042,
        "icon": "fe-municipality"
    },
    {
        "insee": 74158,
        "code_postal": 74140,
        "latitude": 46.2555120151,
        "longitude": 6.32281411543,
        "nom_commune": "Machilly",
        "code_departement": 74,
        "nom_departement": "Haute-Savoie",
        "code_region": 84,
        "nom_region": "Auvergne-Rhône-Alpes",
        "context": "Machilly, Haute-Savoie, Auvergne-Rhône-Alpes",
        "population": 860,
        "icon": "fe-municipality"
    },
    {
        "insee": 74159,
        "code_postal": 74300,
        "latitude": 46.0010482843,
        "longitude": 6.63346275001,
        "nom_commune": "Magland",
        "code_departement": 74,
        "nom_departement": "Haute-Savoie",
        "code_region": 84,
        "nom_region": "Auvergne-Rhône-Alpes",
        "context": "Magland, Haute-Savoie, Auvergne-Rhône-Alpes",
        "population": 2800,
        "icon": "fe-municipality"
    },
    {
        "insee": 74160,
        "code_postal": 74230,
        "latitude": 45.850295364,
        "longitude": 6.40113588124,
        "nom_commune": "Manigod",
        "code_departement": 74,
        "nom_departement": "Haute-Savoie",
        "code_region": 84,
        "nom_region": "Auvergne-Rhône-Alpes",
        "context": "Manigod, Haute-Savoie, Auvergne-Rhône-Alpes",
        "population": 790,
        "icon": "fe-municipality"
    },
    {
        "insee": 74161,
        "code_postal": 74150,
        "latitude": 45.8707666438,
        "longitude": 5.99966381928,
        "nom_commune": "Marcellaz-Albanais",
        "code_departement": 74,
        "nom_departement": "Haute-Savoie",
        "code_region": 84,
        "nom_region": "Auvergne-Rhône-Alpes",
        "context": "Marcellaz-Albanais, Haute-Savoie, Auvergne-Rhône-Alpes",
        "population": 1405,
        "icon": "fe-municipality"
    },
    {
        "insee": 74162,
        "code_postal": 74250,
        "latitude": 46.1452555386,
        "longitude": 6.35771780068,
        "nom_commune": "Marcellaz",
        "code_departement": 74,
        "nom_departement": "Haute-Savoie",
        "code_region": 84,
        "nom_region": "Auvergne-Rhône-Alpes",
        "context": "Marcellaz, Haute-Savoie, Auvergne-Rhône-Alpes",
        "population": 707,
        "icon": "fe-municipality"
    },
    {
        "insee": 74163,
        "code_postal": 74200,
        "latitude": 46.3315818048,
        "longitude": 6.42253424763,
        "nom_commune": "Margencel",
        "code_departement": 74,
        "nom_departement": "Haute-Savoie",
        "code_region": 84,
        "nom_region": "Auvergne-Rhône-Alpes",
        "context": "Margencel, Haute-Savoie, Auvergne-Rhône-Alpes",
        "population": 1435,
        "icon": "fe-municipality"
    },
    {
        "insee": 74164,
        "code_postal": 74970,
        "latitude": 46.0950289167,
        "longitude": 6.4944693169,
        "nom_commune": "Marignier",
        "code_departement": 74,
        "nom_departement": "Haute-Savoie",
        "code_region": 84,
        "nom_region": "Auvergne-Rhône-Alpes",
        "context": "Marignier, Haute-Savoie, Auvergne-Rhône-Alpes",
        "population": 5327,
        "icon": "fe-municipality"
    },
    {
        "insee": 74165,
        "code_postal": 74150,
        "latitude": 45.8298777839,
        "longitude": 5.98423746783,
        "nom_commune": "Marigny-Saint-Marcel",
        "code_departement": 74,
        "nom_departement": "Haute-Savoie",
        "code_region": 84,
        "nom_region": "Auvergne-Rhône-Alpes",
        "context": "Marigny-Saint-Marcel, Haute-Savoie, Auvergne-Rhône-Alpes",
        "population": 630,
        "icon": "fe-municipality"
    },
    {
        "insee": 74166,
        "code_postal": 74200,
        "latitude": 46.374432028,
        "longitude": 6.52367394025,
        "nom_commune": "Marin",
        "code_departement": 74,
        "nom_departement": "Haute-Savoie",
        "code_region": 84,
        "nom_region": "Auvergne-Rhône-Alpes",
        "context": "Marin, Haute-Savoie, Auvergne-Rhône-Alpes",
        "population": 1283,
        "icon": "fe-municipality"
    },
    {
        "insee": 74167,
        "code_postal": 74210,
        "latitude": 45.7653898846,
        "longitude": 6.35142628779,
        "nom_commune": "Val de Chaise",
        "code_departement": 74,
        "nom_departement": "Haute-Savoie",
        "code_region": 84,
        "nom_region": "Auvergne-Rhône-Alpes",
        "context": "Val de Chaise, Haute-Savoie, Auvergne-Rhône-Alpes",
        "population": 699,
        "icon": "fe-municipality"
    },
    {
        "insee": 74168,
        "code_postal": 74270,
        "latitude": 46.0270380688,
        "longitude": 6.00829884912,
        "nom_commune": "Marlioz",
        "code_departement": 74,
        "nom_departement": "Haute-Savoie",
        "code_region": 84,
        "nom_region": "Auvergne-Rhône-Alpes",
        "context": "Marlioz, Haute-Savoie, Auvergne-Rhône-Alpes",
        "population": 441,
        "icon": "fe-municipality"
    },
    {
        "insee": 74169,
        "code_postal": 74460,
        "latitude": 46.0518903759,
        "longitude": 6.5224156191,
        "nom_commune": "Marnaz",
        "code_departement": 74,
        "nom_departement": "Haute-Savoie",
        "code_region": 84,
        "nom_region": "Auvergne-Rhône-Alpes",
        "context": "Marnaz, Haute-Savoie, Auvergne-Rhône-Alpes",
        "population": 4450,
        "icon": "fe-municipality"
    },
    {
        "insee": 74170,
        "code_postal": 74150,
        "latitude": 45.8267941245,
        "longitude": 5.91585359049,
        "nom_commune": "Massingy",
        "code_departement": 74,
        "nom_departement": "Haute-Savoie",
        "code_region": 84,
        "nom_region": "Auvergne-Rhône-Alpes",
        "context": "Massingy, Haute-Savoie, Auvergne-Rhône-Alpes",
        "population": 607,
        "icon": "fe-municipality"
    },
    {
        "insee": 74171,
        "code_postal": 74140,
        "latitude": 46.3230559823,
        "longitude": 6.32549950668,
        "nom_commune": "Massongy",
        "code_departement": 74,
        "nom_departement": "Haute-Savoie",
        "code_region": 84,
        "nom_region": "Auvergne-Rhône-Alpes",
        "context": "Massongy, Haute-Savoie, Auvergne-Rhône-Alpes",
        "population": 1150,
        "icon": "fe-municipality"
    },
    {
        "insee": 74172,
        "code_postal": 74500,
        "latitude": 46.393993609,
        "longitude": 6.6339170176,
        "nom_commune": "Maxilly-sur-Léman",
        "code_departement": 74,
        "nom_departement": "Haute-Savoie",
        "code_region": 84,
        "nom_region": "Auvergne-Rhône-Alpes",
        "context": "Maxilly-sur-Léman, Haute-Savoie, Auvergne-Rhône-Alpes",
        "population": 1018,
        "icon": "fe-municipality"
    },
    {
        "insee": 74173,
        "code_postal": 74120,
        "latitude": 45.8401573581,
        "longitude": 6.62348394015,
        "nom_commune": "Megève",
        "code_departement": 74,
        "nom_departement": "Haute-Savoie",
        "code_region": 84,
        "nom_region": "Auvergne-Rhône-Alpes",
        "context": "Megève, Haute-Savoie, Auvergne-Rhône-Alpes",
        "population": 4518,
        "icon": "fe-municipality"
    },
    {
        "insee": 74174,
        "code_postal": 74490,
        "latitude": 46.208458258,
        "longitude": 6.51327068897,
        "nom_commune": "Mégevette",
        "code_departement": 74,
        "nom_departement": "Haute-Savoie",
        "code_region": 84,
        "nom_region": "Auvergne-Rhône-Alpes",
        "context": "Mégevette, Haute-Savoie, Auvergne-Rhône-Alpes",
        "population": 366,
        "icon": "fe-municipality"
    },
    {
        "insee": 74175,
        "code_postal": 74500,
        "latitude": 46.4006869695,
        "longitude": 6.73172142623,
        "nom_commune": "Meillerie",
        "code_departement": 74,
        "nom_departement": "Haute-Savoie",
        "code_region": 84,
        "nom_region": "Auvergne-Rhône-Alpes",
        "context": "Meillerie, Haute-Savoie, Auvergne-Rhône-Alpes",
        "population": 279,
        "icon": "fe-municipality"
    },
    {
        "insee": 74176,
        "code_postal": 74290,
        "latitude": 45.8653434236,
        "longitude": 6.19371720419,
        "nom_commune": "Menthon-Saint-Bernard",
        "code_departement": 74,
        "nom_departement": "Haute-Savoie",
        "code_region": 84,
        "nom_region": "Auvergne-Rhône-Alpes",
        "context": "Menthon-Saint-Bernard, Haute-Savoie, Auvergne-Rhône-Alpes",
        "population": 1668,
        "icon": "fe-municipality"
    },
    {
        "insee": 74177,
        "code_postal": 74350,
        "latitude": 46.0594628782,
        "longitude": 6.17994135372,
        "nom_commune": "Menthonnex-en-Bornes",
        "code_departement": 74,
        "nom_departement": "Haute-Savoie",
        "code_region": 84,
        "nom_region": "Auvergne-Rhône-Alpes",
        "context": "Menthonnex-en-Bornes, Haute-Savoie, Auvergne-Rhône-Alpes",
        "population": 611,
        "icon": "fe-municipality"
    },
    {
        "insee": 74178,
        "code_postal": 74270,
        "latitude": 45.9618992174,
        "longitude": 5.93569269941,
        "nom_commune": "Menthonnex-sous-Clermont",
        "code_departement": 74,
        "nom_departement": "Haute-Savoie",
        "code_region": 84,
        "nom_region": "Auvergne-Rhône-Alpes",
        "context": "Menthonnex-sous-Clermont, Haute-Savoie, Auvergne-Rhône-Alpes",
        "population": 509,
        "icon": "fe-municipality"
    },
    {
        "insee": 74179,
        "code_postal": 74330,
        "latitude": 45.9864538672,
        "longitude": 6.00616944554,
        "nom_commune": "Mésigny",
        "code_departement": 74,
        "nom_departement": "Haute-Savoie",
        "code_region": 84,
        "nom_region": "Auvergne-Rhône-Alpes",
        "context": "Mésigny, Haute-Savoie, Auvergne-Rhône-Alpes",
        "population": 630,
        "icon": "fe-municipality"
    },
    {
        "insee": 74180,
        "code_postal": 74140,
        "latitude": 46.3456509574,
        "longitude": 6.29932822194,
        "nom_commune": "Messery",
        "code_departement": 74,
        "nom_departement": "Haute-Savoie",
        "code_region": 84,
        "nom_region": "Auvergne-Rhône-Alpes",
        "context": "Messery, Haute-Savoie, Auvergne-Rhône-Alpes",
        "population": 1435,
        "icon": "fe-municipality"
    },
    {
        "insee": 74182,
        "code_postal": 74960,
        "latitude": 45.9184414725,
        "longitude": 6.09688746113,
        "nom_commune": "Meythet",
        "code_departement": 74,
        "nom_departement": "Haute-Savoie",
        "code_region": 84,
        "nom_region": "Auvergne-Rhône-Alpes",
        "context": "Meythet, Haute-Savoie, Auvergne-Rhône-Alpes",
        "population": 7697,
        "icon": "fe-municipality"
    },
    {
        "insee": 74183,
        "code_postal": 74440,
        "latitude": 46.1453438048,
        "longitude": 6.53345961052,
        "nom_commune": "Mieussy",
        "code_departement": 74,
        "nom_departement": "Haute-Savoie",
        "code_region": 84,
        "nom_region": "Auvergne-Rhône-Alpes",
        "context": "Mieussy, Haute-Savoie, Auvergne-Rhône-Alpes",
        "population": 1739,
        "icon": "fe-municipality"
    },
    {
        "insee": 74184,
        "code_postal": 74270,
        "latitude": 46.0551645606,
        "longitude": 5.99089024403,
        "nom_commune": "Minzier",
        "code_departement": 74,
        "nom_departement": "Haute-Savoie",
        "code_region": 84,
        "nom_region": "Auvergne-Rhône-Alpes",
        "context": "Minzier, Haute-Savoie, Auvergne-Rhône-Alpes",
        "population": 498,
        "icon": "fe-municipality"
    },
    {
        "insee": 74185,
        "code_postal": 74560,
        "latitude": 46.1525800446,
        "longitude": 6.21241233878,
        "nom_commune": "Monnetier-Mornex",
        "code_departement": 74,
        "nom_departement": "Haute-Savoie",
        "code_region": 84,
        "nom_region": "Auvergne-Rhône-Alpes",
        "context": "Monnetier-Mornex, Haute-Savoie, Auvergne-Rhône-Alpes",
        "population": 1792,
        "icon": "fe-municipality"
    },
    {
        "insee": 74186,
        "code_postal": 74600,
        "latitude": 45.8589669749,
        "longitude": 6.04681935916,
        "nom_commune": "Montagny-les-Lanches",
        "code_departement": 74,
        "nom_departement": "Haute-Savoie",
        "code_region": 84,
        "nom_region": "Auvergne-Rhône-Alpes",
        "context": "Montagny-les-Lanches, Haute-Savoie, Auvergne-Rhône-Alpes",
        "population": 374,
        "icon": "fe-municipality"
    },
    {
        "insee": 74188,
        "code_postal": 74110,
        "latitude": 46.2066444762,
        "longitude": 6.74359316824,
        "nom_commune": "Montriond",
        "code_departement": 74,
        "nom_departement": "Haute-Savoie",
        "code_region": 84,
        "nom_region": "Auvergne-Rhône-Alpes",
        "context": "Montriond, Haute-Savoie, Auvergne-Rhône-Alpes",
        "population": 768,
        "icon": "fe-municipality"
    },
    {
        "insee": 74189,
        "code_postal": 74130,
        "latitude": 46.0351333935,
        "longitude": 6.47990420928,
        "nom_commune": "Mont-Saxonnex",
        "code_departement": 74,
        "nom_departement": "Haute-Savoie",
        "code_region": 84,
        "nom_region": "Auvergne-Rhône-Alpes",
        "context": "Mont-Saxonnex, Haute-Savoie, Auvergne-Rhône-Alpes",
        "population": 1155,
        "icon": "fe-municipality"
    },
    {
        "insee": 74190,
        "code_postal": 74440,
        "latitude": 46.0632390772,
        "longitude": 6.67318237741,
        "nom_commune": "Morillon",
        "code_departement": 74,
        "nom_departement": "Haute-Savoie",
        "code_region": 84,
        "nom_region": "Auvergne-Rhône-Alpes",
        "context": "Morillon, Haute-Savoie, Auvergne-Rhône-Alpes",
        "population": 503,
        "icon": "fe-municipality"
    },
    {
        "insee": 74191,
        "code_postal": 74110,
        "latitude": 46.1732135057,
        "longitude": 6.74252144427,
        "nom_commune": "Morzine",
        "code_departement": 74,
        "nom_departement": "Haute-Savoie",
        "code_region": 84,
        "nom_region": "Auvergne-Rhône-Alpes",
        "context": "Morzine, Haute-Savoie, Auvergne-Rhône-Alpes",
        "population": 2959,
        "icon": "fe-municipality"
    },
    {
        "insee": 74192,
        "code_postal": 74150,
        "latitude": 45.8711582586,
        "longitude": 5.89506512149,
        "nom_commune": "Moye",
        "code_departement": 74,
        "nom_departement": "Haute-Savoie",
        "code_region": 84,
        "nom_region": "Auvergne-Rhône-Alpes",
        "context": "Moye, Haute-Savoie, Auvergne-Rhône-Alpes",
        "population": 851,
        "icon": "fe-municipality"
    },
    {
        "insee": 74193,
        "code_postal": 74560,
        "latitude": 46.1193345153,
        "longitude": 6.19613166236,
        "nom_commune": "Muraz",
        "code_departement": 74,
        "nom_departement": "Haute-Savoie",
        "code_region": 84,
        "nom_region": "Auvergne-Rhône-Alpes",
        "context": "Muraz, Haute-Savoie, Auvergne-Rhône-Alpes",
        "population": 704,
        "icon": "fe-municipality"
    },
    {
        "insee": 74194,
        "code_postal": 74540,
        "latitude": 45.8062692849,
        "longitude": 6.03921790944,
        "nom_commune": "Mûres",
        "code_departement": 74,
        "nom_departement": "Haute-Savoie",
        "code_region": 84,
        "nom_region": "Auvergne-Rhône-Alpes",
        "context": "Mûres, Haute-Savoie, Auvergne-Rhône-Alpes",
        "population": 646,
        "icon": "fe-municipality"
    },
    {
        "insee": 74195,
        "code_postal": 74270,
        "latitude": 46.014191585,
        "longitude": 5.95578712285,
        "nom_commune": "Musièges",
        "code_departement": 74,
        "nom_departement": "Haute-Savoie",
        "code_region": 84,
        "nom_region": "Auvergne-Rhône-Alpes",
        "context": "Musièges, Haute-Savoie, Auvergne-Rhône-Alpes",
        "population": 269,
        "icon": "fe-municipality"
    },
    {
        "insee": 74196,
        "code_postal": 74300,
        "latitude": 46.0239034674,
        "longitude": 6.57403286211,
        "nom_commune": "Nancy-sur-Cluses",
        "code_departement": 74,
        "nom_departement": "Haute-Savoie",
        "code_region": 84,
        "nom_region": "Auvergne-Rhône-Alpes",
        "context": "Nancy-sur-Cluses, Haute-Savoie, Auvergne-Rhône-Alpes",
        "population": 357,
        "icon": "fe-municipality"
    },
    {
        "insee": 74197,
        "code_postal": 74380,
        "latitude": 46.1500146903,
        "longitude": 6.30645788987,
        "nom_commune": "Nangy",
        "code_departement": 74,
        "nom_departement": "Haute-Savoie",
        "code_region": 84,
        "nom_region": "Auvergne-Rhône-Alpes",
        "context": "Nangy, Haute-Savoie, Auvergne-Rhône-Alpes",
        "population": 785,
        "icon": "fe-municipality"
    },
    {
        "insee": 74198,
        "code_postal": 74370,
        "latitude": 45.9320249832,
        "longitude": 6.19716046431,
        "nom_commune": "Nâves-Parmelan",
        "code_departement": 74,
        "nom_departement": "Haute-Savoie",
        "code_region": 84,
        "nom_region": "Auvergne-Rhône-Alpes",
        "context": "Nâves-Parmelan, Haute-Savoie, Auvergne-Rhône-Alpes",
        "population": 862,
        "icon": "fe-municipality"
    },
    {
        "insee": 74199,
        "code_postal": 74140,
        "latitude": 46.3615754637,
        "longitude": 6.30527066431,
        "nom_commune": "Nernier",
        "code_departement": 74,
        "nom_departement": "Haute-Savoie",
        "code_region": 84,
        "nom_region": "Auvergne-Rhône-Alpes",
        "context": "Nernier, Haute-Savoie, Auvergne-Rhône-Alpes",
        "population": 361,
        "icon": "fe-municipality"
    },
    {
        "insee": 74200,
        "code_postal": 74500,
        "latitude": 46.3921186949,
        "longitude": 6.60933233238,
        "nom_commune": "Neuvecelle",
        "code_departement": 74,
        "nom_departement": "Haute-Savoie",
        "code_region": 84,
        "nom_region": "Auvergne-Rhône-Alpes",
        "context": "Neuvecelle, Haute-Savoie, Auvergne-Rhône-Alpes",
        "population": 2214,
        "icon": "fe-municipality"
    },
    {
        "insee": 74201,
        "code_postal": 74160,
        "latitude": 46.118085274,
        "longitude": 6.10360630627,
        "nom_commune": "Neydens",
        "code_departement": 74,
        "nom_departement": "Haute-Savoie",
        "code_region": 84,
        "nom_region": "Auvergne-Rhône-Alpes",
        "context": "Neydens, Haute-Savoie, Auvergne-Rhône-Alpes",
        "population": 1127,
        "icon": "fe-municipality"
    },
    {
        "insee": 74202,
        "code_postal": 74330,
        "latitude": 45.9228803405,
        "longitude": 6.02730833828,
        "nom_commune": "Nonglard",
        "code_departement": 74,
        "nom_departement": "Haute-Savoie",
        "code_region": 84,
        "nom_region": "Auvergne-Rhône-Alpes",
        "context": "Nonglard, Haute-Savoie, Auvergne-Rhône-Alpes",
        "population": 472,
        "icon": "fe-municipality"
    },
    {
        "insee": 74203,
        "code_postal": 74500,
        "latitude": 46.3613258341,
        "longitude": 6.76382065877,
        "nom_commune": "Novel",
        "code_departement": 74,
        "nom_departement": "Haute-Savoie",
        "code_region": 84,
        "nom_region": "Auvergne-Rhône-Alpes",
        "context": "Novel, Haute-Savoie, Auvergne-Rhône-Alpes",
        "population": 58,
        "icon": "fe-municipality"
    },
    {
        "insee": 74204,
        "code_postal": 74370,
        "latitude": 45.9816487094,
        "longitude": 6.18789182586,
        "nom_commune": "Ollières",
        "code_departement": 74,
        "nom_departement": "Haute-Savoie",
        "code_region": 84,
        "nom_region": "Auvergne-Rhône-Alpes",
        "context": "Ollières, Haute-Savoie, Auvergne-Rhône-Alpes",
        "population": 737,
        "icon": "fe-municipality"
    },
    {
        "insee": 74205,
        "code_postal": 74490,
        "latitude": 46.1816924284,
        "longitude": 6.49869806571,
        "nom_commune": "Onnion",
        "code_departement": 74,
        "nom_departement": "Haute-Savoie",
        "code_region": 84,
        "nom_region": "Auvergne-Rhône-Alpes",
        "context": "Onnion, Haute-Savoie, Auvergne-Rhône-Alpes",
        "population": 786,
        "icon": "fe-municipality"
    },
    {
        "insee": 74206,
        "code_postal": 74550,
        "latitude": 46.3132216712,
        "longitude": 6.50123814187,
        "nom_commune": "Orcier",
        "code_departement": 74,
        "nom_departement": "Haute-Savoie",
        "code_region": 84,
        "nom_region": "Auvergne-Rhône-Alpes",
        "context": "Orcier, Haute-Savoie, Auvergne-Rhône-Alpes",
        "population": 683,
        "icon": "fe-municipality"
    },
    {
        "insee": 74208,
        "code_postal": 74190,
        "latitude": 45.9545838758,
        "longitude": 6.74056895873,
        "nom_commune": "Passy",
        "code_departement": 74,
        "nom_departement": "Haute-Savoie",
        "code_region": 84,
        "nom_region": "Auvergne-Rhône-Alpes",
        "context": "Passy, Haute-Savoie, Auvergne-Rhône-Alpes",
        "population": 10094,
        "icon": "fe-town"
    },
    {
        "insee": 74209,
        "code_postal": 74250,
        "latitude": 46.1323903269,
        "longitude": 6.38235648259,
        "nom_commune": "Peillonnex",
        "code_departement": 74,
        "nom_departement": "Haute-Savoie",
        "code_region": 84,
        "nom_region": "Auvergne-Rhône-Alpes",
        "context": "Peillonnex, Haute-Savoie, Auvergne-Rhône-Alpes",
        "population": 1060,
        "icon": "fe-municipality"
    },
    {
        "insee": 74210,
        "code_postal": 74550,
        "latitude": 46.3062097696,
        "longitude": 6.43566112571,
        "nom_commune": "Perrignier",
        "code_departement": 74,
        "nom_departement": "Haute-Savoie",
        "code_region": 84,
        "nom_region": "Auvergne-Rhône-Alpes",
        "context": "Perrignier, Haute-Savoie, Auvergne-Rhône-Alpes",
        "population": 1919,
        "icon": "fe-municipality"
    },
    {
        "insee": 74211,
        "code_postal": 74930,
        "latitude": 46.1018355447,
        "longitude": 6.25852776575,
        "nom_commune": "Pers-Jussy",
        "code_departement": 74,
        "nom_departement": "Haute-Savoie",
        "code_region": 84,
        "nom_region": "Auvergne-Rhône-Alpes",
        "context": "Pers-Jussy, Haute-Savoie, Auvergne-Rhône-Alpes",
        "population": 2106,
        "icon": "fe-municipality"
    },
    {
        "insee": 74212,
        "code_postal": 74130,
        "latitude": 45.9971884762,
        "longitude": 6.3914422283,
        "nom_commune": "Petit-Bornand-les-Glières",
        "code_departement": 74,
        "nom_departement": "Haute-Savoie",
        "code_region": 84,
        "nom_region": "Auvergne-Rhône-Alpes",
        "context": "Petit-Bornand-les-Glières, Haute-Savoie, Auvergne-Rhône-Alpes",
        "population": 871,
        "icon": "fe-municipality"
    },
    {
        "insee": 74213,
        "code_postal": 74330,
        "latitude": 45.9189291023,
        "longitude": 6.06312526002,
        "nom_commune": "Poisy",
        "code_departement": 74,
        "nom_departement": "Haute-Savoie",
        "code_region": 84,
        "nom_region": "Auvergne-Rhône-Alpes",
        "context": "Poisy, Haute-Savoie, Auvergne-Rhône-Alpes",
        "population": 5486,
        "icon": "fe-municipality"
    },
    {
        "insee": 74215,
        "code_postal": 74120,
        "latitude": 45.8273830963,
        "longitude": 6.58013212731,
        "nom_commune": "Praz-sur-Arly",
        "code_departement": 74,
        "nom_departement": "Haute-Savoie",
        "code_region": 84,
        "nom_region": "Auvergne-Rhône-Alpes",
        "context": "Praz-sur-Arly, Haute-Savoie, Auvergne-Rhône-Alpes",
        "population": 1083,
        "icon": "fe-municipality"
    },
    {
        "insee": 74216,
        "code_postal": 74160,
        "latitude": 46.0850070124,
        "longitude": 6.09107599342,
        "nom_commune": "Présilly",
        "code_departement": 74,
        "nom_departement": "Haute-Savoie",
        "code_region": 84,
        "nom_region": "Auvergne-Rhône-Alpes",
        "context": "Présilly, Haute-Savoie, Auvergne-Rhône-Alpes",
        "population": 622,
        "icon": "fe-municipality"
    },
    {
        "insee": 74217,
        "code_postal": 74370,
        "latitude": 45.9566469348,
        "longitude": 6.10912303815,
        "nom_commune": "Pringy",
        "code_departement": 74,
        "nom_departement": "Haute-Savoie",
        "code_region": 84,
        "nom_region": "Auvergne-Rhône-Alpes",
        "context": "Pringy, Haute-Savoie, Auvergne-Rhône-Alpes",
        "population": 2615,
        "icon": "fe-municipality"
    },
    {
        "insee": 74218,
        "code_postal": 74500,
        "latitude": 46.3896985259,
        "longitude": 6.54164965422,
        "nom_commune": "Publier",
        "code_departement": 74,
        "nom_departement": "Haute-Savoie",
        "code_region": 84,
        "nom_region": "Auvergne-Rhône-Alpes",
        "context": "Publier, Haute-Savoie, Auvergne-Rhône-Alpes",
        "population": 4951,
        "icon": "fe-municipality"
    },
    {
        "insee": 74219,
        "code_postal": 74600,
        "latitude": 45.8329607054,
        "longitude": 6.09119171062,
        "nom_commune": "Quintal",
        "code_departement": 74,
        "nom_departement": "Haute-Savoie",
        "code_region": 84,
        "nom_region": "Auvergne-Rhône-Alpes",
        "context": "Quintal, Haute-Savoie, Auvergne-Rhône-Alpes",
        "population": 882,
        "icon": "fe-municipality"
    },
    {
        "insee": 74220,
        "code_postal": 74930,
        "latitude": 46.1353479879,
        "longitude": 6.26126122824,
        "nom_commune": "Reignier-Ésery",
        "code_departement": 74,
        "nom_departement": "Haute-Savoie",
        "code_region": 84,
        "nom_region": "Auvergne-Rhône-Alpes",
        "context": "Reignier-Ésery, Haute-Savoie, Auvergne-Rhône-Alpes",
        "population": 5266,
        "icon": "fe-municipality"
    },
    {
        "insee": 74221,
        "code_postal": 74950,
        "latitude": 45.9970981338,
        "longitude": 6.52628371874,
        "nom_commune": "Reposoir",
        "code_departement": 74,
        "nom_departement": "Haute-Savoie",
        "code_region": 84,
        "nom_region": "Auvergne-Rhône-Alpes",
        "context": "Reposoir, Haute-Savoie, Auvergne-Rhône-Alpes",
        "population": 375,
        "icon": "fe-municipality"
    },
    {
        "insee": 74222,
        "code_postal": 74200,
        "latitude": 46.324542262,
        "longitude": 6.56224816436,
        "nom_commune": "Reyvroz",
        "code_departement": 74,
        "nom_departement": "Haute-Savoie",
        "code_region": 84,
        "nom_region": "Auvergne-Rhône-Alpes",
        "context": "Reyvroz, Haute-Savoie, Auvergne-Rhône-Alpes",
        "population": 420,
        "icon": "fe-municipality"
    },
    {
        "insee": 74223,
        "code_postal": 74440,
        "latitude": 46.0896743627,
        "longitude": 6.63334619957,
        "nom_commune": "Rivière-Enverse",
        "code_departement": 74,
        "nom_departement": "Haute-Savoie",
        "code_region": 84,
        "nom_region": "Auvergne-Rhône-Alpes",
        "context": "Rivière-Enverse, Haute-Savoie, Auvergne-Rhône-Alpes",
        "population": 393,
        "icon": "fe-municipality"
    },
    {
        "insee": 74224,
        "code_postal": 74800,
        "latitude": 46.0431484138,
        "longitude": 6.30107653595,
        "nom_commune": "Roche-sur-Foron",
        "code_departement": 74,
        "nom_departement": "Haute-Savoie",
        "code_region": 84,
        "nom_region": "Auvergne-Rhône-Alpes",
        "context": "Roche-sur-Foron, Haute-Savoie, Auvergne-Rhône-Alpes",
        "population": 8545,
        "icon": "fe-municipality"
    },
    {
        "insee": 74225,
        "code_postal": 74150,
        "latitude": 45.8555126651,
        "longitude": 5.94075287432,
        "nom_commune": "Rumilly",
        "code_departement": 74,
        "nom_departement": "Haute-Savoie",
        "code_region": 84,
        "nom_region": "Auvergne-Rhône-Alpes",
        "context": "Rumilly, Haute-Savoie, Auvergne-Rhône-Alpes",
        "population": 11223,
        "icon": "fe-town"
    },
    {
        "insee": 74226,
        "code_postal": 74420,
        "latitude": 46.1932380604,
        "longitude": 6.3815476772,
        "nom_commune": "Saint-André-de-Boëge",
        "code_departement": 74,
        "nom_departement": "Haute-Savoie",
        "code_region": 84,
        "nom_region": "Auvergne-Rhône-Alpes",
        "context": "Saint-André-de-Boëge, Haute-Savoie, Auvergne-Rhône-Alpes",
        "population": 517,
        "icon": "fe-municipality"
    },
    {
        "insee": 74228,
        "code_postal": 74350,
        "latitude": 46.0663582053,
        "longitude": 6.09154099437,
        "nom_commune": "Saint-Blaise",
        "code_departement": 74,
        "nom_departement": "Haute-Savoie",
        "code_region": 84,
        "nom_region": "Auvergne-Rhône-Alpes",
        "context": "Saint-Blaise, Haute-Savoie, Auvergne-Rhône-Alpes",
        "population": 198,
        "icon": "fe-municipality"
    },
    {
        "insee": 74229,
        "code_postal": 74140,
        "latitude": 46.2308494715,
        "longitude": 6.32552147286,
        "nom_commune": "Saint-Cergues",
        "code_departement": 74,
        "nom_departement": "Haute-Savoie",
        "code_region": 84,
        "nom_region": "Auvergne-Rhône-Alpes",
        "context": "Saint-Cergues, Haute-Savoie, Auvergne-Rhône-Alpes",
        "population": 2487,
        "icon": "fe-municipality"
    },
    {
        "insee": 74231,
        "code_postal": 74150,
        "latitude": 45.9294639513,
        "longitude": 5.96296409626,
        "nom_commune": "Saint-Eusèbe",
        "code_departement": 74,
        "nom_departement": "Haute-Savoie",
        "code_region": 84,
        "nom_region": "Auvergne-Rhône-Alpes",
        "context": "Saint-Eusèbe, Haute-Savoie, Auvergne-Rhône-Alpes",
        "population": 361,
        "icon": "fe-municipality"
    },
    {
        "insee": 74232,
        "code_postal": 74410,
        "latitude": 45.7953730789,
        "longitude": 6.15214933541,
        "nom_commune": "Saint-Eustache",
        "code_departement": 74,
        "nom_departement": "Haute-Savoie",
        "code_region": 84,
        "nom_region": "Auvergne-Rhône-Alpes",
        "context": "Saint-Eustache, Haute-Savoie, Auvergne-Rhône-Alpes",
        "population": 392,
        "icon": "fe-municipality"
    },
    {
        "insee": 74233,
        "code_postal": 74540,
        "latitude": 45.8078414616,
        "longitude": 5.97720329575,
        "nom_commune": "Saint-Félix",
        "code_departement": 74,
        "nom_departement": "Haute-Savoie",
        "code_region": 84,
        "nom_region": "Auvergne-Rhône-Alpes",
        "context": "Saint-Félix, Haute-Savoie, Auvergne-Rhône-Alpes",
        "population": 1617,
        "icon": "fe-municipality"
    },
    {
        "insee": 74234,
        "code_postal": 74210,
        "latitude": 45.7833203062,
        "longitude": 6.30718276137,
        "nom_commune": "Saint-Ferréol",
        "code_departement": 74,
        "nom_departement": "Haute-Savoie",
        "code_region": 84,
        "nom_region": "Auvergne-Rhône-Alpes",
        "context": "Saint-Ferréol, Haute-Savoie, Auvergne-Rhône-Alpes",
        "population": 799,
        "icon": "fe-municipality"
    },
    {
        "insee": 74235,
        "code_postal": 74910,
        "latitude": 46.0700297768,
        "longitude": 5.82592326437,
        "nom_commune": "Saint-Germain-sur-Rhône",
        "code_departement": 74,
        "nom_departement": "Haute-Savoie",
        "code_region": 84,
        "nom_region": "Auvergne-Rhône-Alpes",
        "context": "Saint-Germain-sur-Rhône, Haute-Savoie, Auvergne-Rhône-Alpes",
        "population": 305,
        "icon": "fe-municipality"
    },
    {
        "insee": 74236,
        "code_postal": 74170,
        "latitude": 45.8571864862,
        "longitude": 6.74016257718,
        "nom_commune": "Saint-Gervais-les-Bains",
        "code_departement": 74,
        "nom_departement": "Haute-Savoie",
        "code_region": 84,
        "nom_region": "Auvergne-Rhône-Alpes",
        "context": "Saint-Gervais-les-Bains, Haute-Savoie, Auvergne-Rhône-Alpes",
        "population": 5290,
        "icon": "fe-municipality"
    },
    {
        "insee": 74237,
        "code_postal": 74500,
        "latitude": 46.3882088835,
        "longitude": 6.77810230849,
        "nom_commune": "Saint-Gingolph",
        "code_departement": 74,
        "nom_departement": "Haute-Savoie",
        "code_region": 84,
        "nom_region": "Auvergne-Rhône-Alpes",
        "context": "Saint-Gingolph, Haute-Savoie, Auvergne-Rhône-Alpes",
        "population": 564,
        "icon": "fe-municipality"
    },
    {
        "insee": 74238,
        "code_postal": 74430,
        "latitude": 46.2278739142,
        "longitude": 6.66076731793,
        "nom_commune": "Saint-Jean-d'Aulps",
        "code_departement": 74,
        "nom_departement": "Haute-Savoie",
        "code_region": 84,
        "nom_region": "Auvergne-Rhône-Alpes",
        "context": "Saint-Jean-d'Aulps, Haute-Savoie, Auvergne-Rhône-Alpes",
        "population": 1028,
        "icon": "fe-municipality"
    },